,ID,Station Name,River Basin,County,Longitude,Latitude,ElevationFeet,Operator,HydrologicArea
0,APT,APTOS CREEK AT RIDER ROAD,SAN LORENZO RIVER,SANTA CRUZ,-121.8528,37.0361,"1,123",Santa Cruz County,Central Coast
1,ARG,ARROYO GRANDE,ARROYO GRANDE CREEK,SAN LUIS OBISPO,-120.417,35.117,600,CA Dept of Forestry and Fire Protection,Central Coast
2,ARY,ARROYO SECO,SALINAS RIVER,MONTEREY,-121.488,36.23,980,US Forest Service,Central Coast
3,ASS,ARROYO SECO NR SOLEDAD,SALINAS RIVER,MONTEREY,-121.322708,36.280521,399,US Geological Survey,Central Coast
4,ATN,LAKE SAN ANTONIO,SALINAS RIVER,MONTEREY,-120.883,35.798,779,Monterey County,Central Coast
5,BAK,BATES CREEK RANCH,SAN LORENZO RIVER,SANTA CRUZ,-121.93,37.0208,440,Santa Cruz County,Central Coast
6,BDC,BOULDER CREEK,SAN LORENZO RIVER,SANTA CRUZ,-122.163,37.142,800,Santa Cruz County,Central Coast
7,BGS,BIG SUR STATE PARK,SALINAS RIVER,MONTEREY,-121.811,36.247,240,National Weather Service,Central Coast
8,BLM,BLACK MOUNTAIN,SALINAS RIVER,SAN LUIS OBISPO,-120.352501,35.394718,"3,625",CA Dept of Water Resources/DFM-Hydro-SMN,Central Coast
9,BLN,BEN LOMOND,SAN LORENZO RIVER,SANTA CRUZ,-122.075,37.093,365,Santa Cruz County,Central Coast
10,BMO,BRANCH MOUNTAIN,SALINAS RIVER,SAN LUIS OBISPO,-120.083,35.189,"3,770",US Forest Service,Central Coast
11,BRA,SALINAS RIVER NEAR BRADLEY,SALINAS RIVER,MONTEREY,-120.86879,35.930244,443,USGS/DWR,Central Coast
12,BRL,BURRELL STATION,PAJARO RIVER,SANTA CRUZ,-121.906,37.109,"1,850",Santa Cruz County,Central Coast
13,BTS,BATES RIDGE,SANTA MARIA RIVER,SANTA BARBARA,-119.917,34.917,"5,120",Santa Barbara County,Central Coast
14,CCF,CORRALITOS CREEK AT FREEDOM,PAJARO RIVER,SANTA CRUZ,-121.7692,36.9392,100,Santa Cruz County,Central Coast
15,CCH,CACHUMA LAKE (BRADBURY DAM),SANTA YNEZ RIVER,SANTA BARBARA,-119.98,34.583,781,US Bureau of Reclamation,Central Coast
16,CER,CHOLAME CREEK NEAR ESTRELLA RIVER,SALINAS RIVER,SAN LUIS OBISPO,-120.358376,35.67017,"1,044",CA Dept of Water Resources/South Central Region Office,Central Coast
17,CHT,PAJARO RIVER AT CHITTENDEN,PAJARO RIVER,SANTA CRUZ,-121.597725,36.90023,82,USGS/DWR,Central Coast
18,CHW,CHEWS RIDGE,CARMEL RIVER,MONTEREY,-121.57,36.312,"5,040",Monterey County,Central Coast
19,CML,CARMEL RIVER NEAR CARMEL,CARMEL RIVER,MONTEREY,-121.874,36.539,45,US Geological Survey,Central Coast
20,CMR,CARMEL RIVER AT HWY 1 BRIDGE,CARMEL RIVER,MONTEREY,-121.911,36.536,10,Monterey County,Central Coast
21,CMT,CASTLE MOUNTAIN,SALINAS RIVER,FRESNO,-120.328,35.942,"4,000",CA Dept of Water Resources/Operations and Maintenance,Central Coast
22,COR,CORRALITOS,PAJARO RIVER,SANTA CRUZ,-121.797,36.992,450,CA Dept of Forestry and Fire Protection,Central Coast
23,CRZ,SANTA CRUZ,SAN LORENZO RIVER,SANTA CRUZ,-122.017,36.983,130,National Weather Service,Central Coast
24,CZO,CARRIZO,CARRIZO CREEK,SAN LUIS OBISPO,-119.773,35.096,"2,490",CA Dept of Forestry and Fire Protection,Central Coast
25,DAP,DAVENPORT,SANTA CRUZ CO COAST,SANTA CRUZ,-122.1917,37.0197,200,Santa Cruz County,Central Coast
26,EKN,EUREKA CANYON (CORRALITOS 6NW),PAJARO RIVER,SANTA CRUZ,-121.803,37.036,"1,700",Santa Cruz County,Central Coast
27,ELF,SANTA CLARA R AT E LA FALDA WY NR PIRU,SANTA CLARA RIVER,VENTURA,-118.739143,34.403526,710,US Geological Survey,Central Coast
28,EST,ESTRELLA RIVER NEAR ESTRELLA,SALINAS RIVER,SAN LUIS OBISPO,-120.639168,35.71722,672,USGS/DWR,Central Coast
29,FEL,SAN LORENZO RIVER FELTON DIVERSION,SAN LORENZO RIVER,SANTA CRUZ,-122.072333,37.045531,260,City of Santa Cruz,Central Coast
30,FGR,FIGUEROA MOUNTAIN,SANTA YNEZ RIVER,SANTA BARBARA,-120.0072,34.7514,"3,200",Santa Barbara County,Central Coast
31,FIG,FIGUEROA,SANTA YNEZ RIVER,SANTA BARBARA,-120.007,34.734,"3,200",US Forest Service,Central Coast
32,GBL,GIBRALTAR DAM,SANTA YNEZ RIVER,SANTA BARBARA,-119.686,34.526,"1,399",City of Santa Barbara,Central Coast
33,GGR,GLORIA GRADE,SALINAS RIVER,MONTEREY,-121.277,36.532,"1,960",Monterey County,Central Coast
34,GRY,SISQUOC RIVER AT GAREY,SISQUOC RIVER,SANTA BARBARA,-120.168205,34.839703,354,US Geological Survey,Central Coast
35,HDZ,HERNANDEZ,SAN BENITO RIVER,SAN BENITO,-120.854,36.383,"3,752",CA Dept of Forestry and Fire Protection,Central Coast
36,HLS,HOLLISTER,PAJARO RIVER,SAN BENITO,-121.424,36.844,275,National Weather Service,Central Coast
37,HTG,HASTINGS,CARMEL RIVER,MONTEREY,-121.551,36.388,"1,824",CA Dept of Forestry and Fire Protection,Central Coast
38,IDR,IDRIA,SAN BENITO RIVER,FRESNO,-120.671389,36.4161,"2,400",CA Dept of Water Resources/Operations and Maintenance,Central Coast
39,JNL,JUNCAL DAM,SANTA YNEZ RIVER,SANTA BARBARA,-119.5,34.483,"2,075",National Weather Service,Central Coast
40,LCM,LAS CUMBRES,SAN LORENZO RIVER,SANTA CRUZ,-122.063,37.208,"2,760",Santa Cruz County,Central Coast
41,LDD,LIDDEL SPRING DIVERSION,SANTA CRUZ CO COAST,SANTA CRUZ,-122.150556,37.023333,760,City of Santa Cruz,Central Coast
42,LDL,LIDELL,SANTA CRUZ CO COAST,SANTA CRUZ,-122.1505,37.024167,577,City of Santa Cruz,Central Coast
43,LGU,LAGUNA CREEK DIVERSION,SANTA CRUZ CO COAST,SANTA CRUZ,-122.131447,37.023802,600,City of Santa Cruz,Central Coast
44,LIM,LIMEKILN,SALINAS RIVER,MONTEREY,-121.540812,36.51276,916,Monterey County,Central Coast
45,LLC,LOS LAURELES CANYON,SANTA YNEZ RIVER,SANTA BARBARA,-119.864861,34.543602,788,US Geological Survey,Central Coast
46,LOP,LOPEZ LAKE,ARROYO GRANDE CREEK,SAN LUIS OBISPO,-120.487,35.188,759,San Luis Obispo County,Central Coast
47,LPU,LAKE PIRU AT TEMESCAL,PIRU CREEK,VENTURA,-118.76111,34.47444,"1,103",Ventura County,Central Coast
48,LPZ,LA PANZA,SALINAS RIVER,SAN LUIS OBISPO,-120.1881,35.3806,"1,650",CA Dept of Forestry and Fire Protection,Central Coast
49,LSO,LOS OSOS,COAST-MORRO BAY,SAN LUIS OBISPO,-120.801,35.322,130,National Weather Service,Central Coast
50,LTB,LAS TABLAS,SALINAS RIVER,SAN LUIS OBISPO,-120.924164,35.656387,900,CA Dept of Forestry and Fire Protection,Central Coast
51,LWT,LEWIS TANK,SAN LORENZO RIVER,SANTA CRUZ,-122.05917,37.0984,"1,094",San Lorenzo Valley Water District,Central Coast
52,MJR,MAJORS CREEK DIVERSION,SANTA CRUZ CO COAST,SANTA CRUZ,-122.120806,36.998883,350,City of Santa Cruz,Central Coast
53,MMD,MOUNT MADONNA,SAN BENITO RIVER,SANTA CLARA,-121.702,37.011,"1,822",Santa Clara County,Central Coast
54,MNG,MINING RIDGE,MONTEREY COAST,MONTEREY,-121.496,36.081,"4,710",Monterey County,Central Coast
55,MTC,MONTECITO,S BARBARA COAST,SANTA BARBARA,-119.643,34.46,"1,500",US Forest Service,Central Coast
56,MTG,MUSTANG RIDGE,SALINAS RIVER,MONTEREY,-120.759,36.193,"2,700",Monterey County,Central Coast
57,MTY,MONTEREY AIRPORT,CARMEL RIVER,MONTEREY,-121.847504,36.590557,217,National Weather Service,Central Coast
58,NCD,NACIMIENTO R BLW DAM,NACIMIENTO RIVER,SAN LUIS OBISPO,-120.855461,35.761356,597,US Geological Survey,Central Coast
59,NCM,NACIMIENTO,NACIMIENTO RIVER,SAN LUIS OBISPO,-120.884,35.758,784,Monterey County,Central Coast
60,NRW,SANTA YNEZ R AT NARROWS NR LOMPOC,SANTA YNEZ RIVER,SANTA BARBARA,-120.424,34.637,85,US Geological Survey,Central Coast
61,NWC,NEWELL CREEK RESERVOIR DIVERSION,SAN LORENZO RIVER,SANTA CRUZ,-122.072534,37.102415,600,City of Santa Cruz,Central Coast
62,NWL,LOCH LOMOND (NEWELL CREEK DAM),SAN LORENZO RIVER,SANTA CRUZ,-122.072,37.103,925,City of Santa Cruz,Central Coast
63,OKV,VENTURA R NR SANTA ANA BLVD BRIDGE,VENTURA RIVER,VENTURA,-119.306712,34.402173,402,CA Dept of Water Resources/Southern Region Office,Central Coast
64,OLV,OLIVE SPRINGS QUARRY,SAN LORENZO RIVER,SANTA CRUZ,-121.925,37.063,480,Santa Cruz County,Central Coast
65,ORR,ORMSBY ROAD,SAN LORENZO RIVER,SANTA CRUZ,-121.824,37.0669,"2,302",Santa Cruz County,Central Coast
66,PAS,SALINAS RIVER AT PASO ROBLES,SALINAS RIVER,SAN LUIS OBISPO,-120.684334,35.628582,700,USGS/DWR,Central Coast
67,PIU,PIRU,SANTA CLARA RIVER,VENTURA,-118.81,34.404,624,Ventura County,Central Coast
68,PKF,PARKFIELD,SALINAS RIVER,MONTEREY,-120.432,35.899,"1,535",CA Dept of Forestry and Fire Protection,Central Coast
69,PLV,PLEASANT VALLEY,PAJARO RIVER,SANTA CRUZ,-121.8306,36.9897,360,Santa Cruz County,Central Coast
70,PNR,PONCIANO RIDGE,CARMEL RIVER,MONTEREY,-121.723,36.4,"2,610",Monterey County,Central Coast
71,PPN,POINT PINOS,MONTEREY COAST,MONTEREY,-121.931,36.518,55,Monterey County,Central Coast
72,PSB,PASO ROBLES AIRPORT,SALINAS RIVER,SAN LUIS OBISPO,-120.626114,35.673054,836,National Weather Service,Central Coast
73,RDR,CARMEL RIVER AT ROBLES DEL RIO,CARMEL RIVER,MONTEREY,-121.728,36.474,269,US Geological Survey,Central Coast
74,ROS,SANTA ROSA ISLAND,S BARBARA COAST,SANTA BARBARA,-120.067,33.967,"1,250",National Park Service,Central Coast
75,RVG,RIVERSIDE GROVE,SAN LORENZO RIVER,SANTA CRUZ,-122.15009,37.17468,"1,020",San Lorenzo Valley Water District,Central Coast
76,SAP,SALINAS NO2,SALINAS RIVER,MONTEREY,-121.667,36.667,45,National Weather Service,Central Coast
77,SBH,SAN BENITO R AT HWY 156 NEAR HOLLISTER,SAN BENITO RIVER,SAN BENITO,-121.429939,36.851898,260,US Geological Survey,Central Coast
78,SBR,SANTA BARBARA SANITATION,S BARBARA COAST,SANTA BARBARA,-119.75,34.417,5,Santa Barbara County,Central Coast
79,SBT,SANTA BARBARA PORTRERO,SISQUOC RIVER,SANTA BARBARA,-119.6519,34.77056,"5,300",Santa Barbara County,Central Coast
80,SCH,SCHULTIES RD,SAN LORENZO RIVER,SANTA CRUZ,-121.969,37.133,"1,400",Santa Cruz County,Central Coast
81,SCZ,SANTA CRUZ ISLAND,S BARBARA COAST,SANTA BARBARA,-119.783,34.017,600,National Park Service,Central Coast
82,SLG,SALINAS RIVER AT LAGOON,SALINAS RIVER,MONTEREY,-121.8,36.75,12,Monterey County,Central Coast
83,SLN,SANTA MARGARITA LAKE,SALINAS RIVER,SAN LUIS OBISPO,-120.502,35.333,"1,325",US Army Corps of Engineers,Central Coast
84,SLO,SAN LUIS OBISPO POLY,SAN LUIS OBISPO CREEK,SAN LUIS OBISPO,-120.667,35.3,315,National Weather Service,Central Coast
85,SLR,SAN LORENZO RIVER DIVERSION,SAN LORENZO RIVER,SANTA CRUZ,-122.031406,36.990925,80,City of Santa Cruz,Central Coast
86,SLU,SANTA LUCIA CONSERVANCY,CARMEL RIVER,MONTEREY,-121.79388,36.486134,"1,883",Center for Western Weather and Water Extremes,Central Coast
87,SMB,SANTA MARGARITA BOOSTER,SALINAS RIVER,SAN LUIS OBISPO,-120.637497,35.37389,"1,100",CA Dept of Water Resources/DFM-Hydro-SMN,Central Coast
88,SMI,SMITH MOUNTAIN,SALINAS RIVER,MONTEREY,-120.608,36.083,"3,920",CA Dept of Water Resources/Operations and Maintenance,Central Coast
89,SPR,SALINAS RIVER NEAR SPRECKELS,SALINAS RIVER,MONTEREY,-121.672447,36.631069,53,USGS/DWR,Central Coast
90,SQL,SOQUEL CREEK,SAN LORENZO RIVER,SANTA CRUZ,-121.95,36.983,30,Santa Cruz County,Central Coast
91,SRI,SANTA RITA,SAN BENITO RIVER,SAN BENITO,-120.598,36.348,"5,000",CA Dept of Forestry and Fire Protection,Central Coast
92,SYH,SANTA YNEZ R AT H ST NR LOMPOC,SANTA YNEZ RIVER,SANTA BARBARA,-120.457939,34.668316,57,US Geological Survey,Central Coast
93,T01,BIG BASIN STATE PARK,SANTA CRUZ CO COAST,SANTA CRUZ,-122.204161,37.183692,"1,377",National Weather Service,Central Coast
94,T02,BONNY DOON FIRE STATION ON MARTIN ROAD,SANTA CRUZ CO COAST,SANTA CRUZ,-122.139024,37.051133,"1,611",National Weather Service,Central Coast
95,TWT,TWITCHELL RESERVOIR,SANTA MARIA RIVER,SAN LUIS OBISPO,-120.317,34.983,692,Santa Maria Valley Water Conservation District,Central Coast
96,VAN,VANDENBERG,SANTA YNEZ RIVER,SANTA BARBARA,-120.486,34.759,"1,050",US Forest Service,Central Coast
97,VWD,SAN LORENZO VALLEY WATER DISTRICT,SAN LORENZO RIVER,SANTA CRUZ,-122.121864,37.123444,495,San Lorenzo Valley Water District,Central Coast
98,WBP,WEST BIG PINE,SANTA YNEZ RIVER,SANTA BARBARA,-119.66444,34.69056,"6,360",Santa Barbara County,Central Coast
99,WHR,WHALE ROCK,SALINAS RIVER,SAN LUIS OBISPO,-120.883,35.45,233,San Luis Obispo County,Central Coast
100,WTW,WATSONVILLE WATER,PAJARO RIVER,SANTA CRUZ,-121.767,36.933,95,National Weather Service,Central Coast
101,X09,BOYER CREEK,SANTA CRUZ CO COAST,SANTA CRUZ,-122.209489,37.107014,"1,500",CA Dept of Water Resources/DFM-Hydro-SMN,Central Coast
102,XCD,COAST DAIRIES,SANTA CRUZ CO COAST,SANTA CRUZ,-122.187853,37.030833,723,US Bureau of Land Management,Central Coast
103,29P,TWENTYNINE PALMS,COLORADO RIVER,SAN BERNARDINO,-116.037,34.127,"1,975",National Weather Service,Colorado River
104,BLY,BLYTHE,COLORADO RIVER,RIVERSIDE,-114.717,33.617,390,CA Dept of Forestry and Fire Protection,Colorado River
105,BNY,BURNS CANYON,WHITEWATER RIVER,SAN BERNARDINO,-116.6217,34.208,"6,000",CA Dept of Forestry and Fire Protection,Colorado River
106,BUT,BUTTERCUP,COLORADO RIVER,IMPERIAL,-114.884,32.74,320,US Bureau of Land Management,Colorado River
107,CAU,CAHUILLA,COLORADO RIVER,IMPERIAL,-115.174,32.974,278,US Bureau of Land Management,Colorado River
108,CLD,COLORADO R-LEES FERY,COLORADO RIVER,State of Arizona,-111.588,36.865,"9,999",.None Specified,Colorado River
109,CON,CONVERSE,SANTA ANA RIVER,SAN BERNARDINO,-116.913,34.194,"5,618",US Forest Service,Colorado River
110,FIS,FISH CREEK MOUNTAINS,WEST SALTON SEA,IMPERIAL,-116.058,32.983,760,US Bureau of Land Management,Colorado River
111,HVS,LAKE HAVASU,COLORADO RIVER,SAN BERNARDINO,-114.156,34.317,451,US Bureau of Reclamation,Colorado River
112,IMP,IMPERIAL VALLEY,COLORADO RIVER,IMPERIAL,-115.57,32.85,-64,National Weather Service,Colorado River
113,LTH,LOST HORSE,WHITEWATER RIVER,RIVERSIDE,-116.183,34.017,"4,100",National Park Service,Colorado River
114,MEA,LAKE MEAD,COLORADO RIVER,State of Arizona,-114.736,36.016,"3,700",US Bureau of Reclamation,Colorado River
115,MHV,LAKE MOHAVE,COLORADO RIVER,State of Nevada,-114.567,35.197,644,US Bureau of Reclamation,Colorado River
116,MNS,MEANS LAKE,WHITEWATER RIVER,SAN BERNARDINO,-116.517,34.391,"2,900",US Bureau of Land Management,Colorado River
117,NDL,NEEDLES,COLORADO RIVER,SAN BERNARDINO,-114.6,34.833,480,National Weather Service,Colorado River
118,PMS,PALM SPRINGS,WHITEWATER RIVER,RIVERSIDE,-116.5,33.833,425,National Weather Service,Colorado River
119,PWL,LAKE POWELL,COLORADO RIVER,State of Arizona,-111.493,36.937,"3,700",US Bureau of Reclamation,Colorado River
120,RIC,RICE VALLEY,COLORADO RIVER,RIVERSIDE,-114.732278,34.06075,831,US Bureau of Land Management,Colorado River
121,SQK,SENATOR WASH,COLORADO RIVER,IMPERIAL,-114.494,32.908,300,US Bureau of Land Management,Colorado River
122,YUC,YUCCA VALLEY,WHITEWATER RIVER,SAN BERNARDINO,-116.408,34.123,"3,100",CA Dept of Forestry and Fire Protection,Colorado River
123,ACS,AUSTIN CREEK,RUSSIAN RIVER,SONOMA,-123.014583,38.564004,1,Center for Western Weather and Water Extremes,North Coast
124,ALD,ALDER POINT,EEL RIVER,HUMBOLDT,-123.712,40.232,923,CA Dept of Forestry and Fire Protection,North Coast
125,ARC,MAD RIVER NEAR ARCATA,MAD RIVER,HUMBOLDT,-124.060616,40.909851,33,USGS/DWR,North Coast
126,BBS,BEAR BASIN,TRINITY RIVER,TRINITY,-122.867,40.967,"6,500",Weaverville Ranger District,North Coast
127,BBY,BODEGA BAY UC DAVIS BODEGA MARINE LAB,RUSSIAN RIVER,SONOMA,-123.072861,38.318328,43,Center for Western Weather and Water Extremes,North Coast
128,BCW,BULL CREEK NEAR WEOTT,EEL RIVER,HUMBOLDT,-124.005043,40.351528,269,US Geological Survey,North Coast
129,BFL,BIG FLAT,TRINITY RIVER,TRINITY,-122.94223,41.077599,"5,100",US Bureau of Reclamation,North Coast
130,BFT,BIG FLAT (COURSE),TRINITY RIVER,TRINITY,-122.938,41.077,"5,100",Weaverville Ranger District,North Coast
131,BGB,BIG BAR,TRINITY RIVER,TRINITY,-123.2,40.733,"1,270",US Forest Service,North Coast
132,BGG,BIG SPRINGS CREEK NEAR GRENADA,SHASTA RIVER,SISKIYOU,-122.431361,41.599233,"2,578",CA Dept of Water Resources/North Region Office,North Coast
133,BGV,BRIDGEVILLE,VAN DUZEN RIVER,HUMBOLDT,-123.792809,40.473881,646,USGS/DWR-DFM-Hydro-SMN,North Coast
134,BNK,BONANZA KING,TRINITY RIVER,TRINITY,-122.631271,41.083118,"6,450",US Bureau of Reclamation,North Coast
135,BNV,BOONVILLE,NAVARRO RIVER,MENDOCINO,-123.3486,38.9875,840,CA Dept of Forestry and Fire Protection,North Coast
136,BOY,BOYES CREEK CANYON,RUSSIAN RIVER,MENDOCINO,-123.16349,39.34053,"1,139",Center for Western Weather and Water Extremes,North Coast
137,BRI,VAN DUZEN R NR BRIDGEVILLE AT GRIZZLY CR,VAN DUZEN RIVER,HUMBOLDT,-123.890877,40.480415,358,USGS/DWR,North Coast
138,BXC,BOX CAMP,SCOTT RIVER,SISKIYOU,-123.165,41.597,"6,450",Salmon/Scott River Ranger District,North Coast
139,BZR,BRAZIE RANCH,KLAMATH RIVER,SISKIYOU,-122.6,41.687,"3,020",CA Dept of Forestry and Fire Protection,North Coast
140,CAL,CALLAHAN,SCOTT RIVER,SISKIYOU,-122.8,41.317,"3,185",National Weather Service,North Coast
141,CDM,EF RUSSIAN R BLW COYOTE DAM,RUSSIAN RIVER,MENDOCINO,-123.1864,39.1975,614,US Army Corps of Engineers,North Coast
142,CDW,LAKE MENDOCINO WEATHER,RUSSIAN RIVER,MENDOCINO,-123.1853,39.2031,670,US Army Corps of Engineers,North Coast
143,CEC,CRESCENT CITY MC NAMARA FIELD,SMITH RIVER,DEL NORTE,-124.24,41.78,56,National Weather Service,North Coast
144,CFF,COFFEE CREEK RANGER STATION,TRINITY RIVER,TRINITY,-122.708611,41.089439,"2,503",CA Dept of Water Resources/DFM-Hydro-SMN,North Coast
145,CFR,COFFEE RIDGE,TRINITY RIVER,TRINITY,-122.717,41.083,"3,040",US Bureau of Reclamation,North Coast
146,CHA,CALLAHAN (USFS),SCOTT RIVER,SISKIYOU,-122.8244,41.299721,"3,136",US Forest Service,North Coast
147,CLB,COLLINS BALDY,KLAMATH RIVER,SISKIYOU,-122.9503,41.775,"5,493",US Forest Service,North Coast
148,CLE,TRINITY LAKE,TRINITY RIVER,TRINITY,-122.762,40.801,"2,370",US Bureau of Reclamation,North Coast
149,CLK,CLEAR LK - KLAMATH R,KLAMATH RIVER,MODOC,-121.075,41.927,"4,552",US Bureau of Reclamation,North Coast
150,CLO,COVELO,EEL RIVER,MENDOCINO,-123.084717,39.826111,"1,487",CA Dept of Water Resources/DFM-Hydro-SMN,North Coast
151,CLV,RUSSIAN RIVER AT CLOVERDALE,RUSSIAN RIVER,MENDOCINO,-123.053612,38.879349,107,CA Dept of Water Resources/DFM-Hydro-SMN,North Coast
152,COV,COVELO 1 NNE,EEL RIVER,MENDOCINO,-123.083,39.833,"1,514",National Weather Service,North Coast
153,COY,COYOTE (LAKE MENDOCINO),RUSSIAN RIVER,MENDOCINO,-123.186,39.197,720,US Army Corps of Engineers,North Coast
154,CSM,COOSKIE MOUNTAIN,MATTOLE RIVER,HUMBOLDT,-124.25,40.258,"2,950",US Forest Service,North Coast
155,CWF,CROWDER FLAT,KLAMATH RIVER,MODOC,-120.7519,41.8934,"5,100",Natural Resources Conservation Service,North Coast
156,CZP,CRAZY PEAK,SMITH RIVER,DEL NORTE,-123.6,41.983,"3,970",CA Dept of Forestry and Fire Protection,North Coast
157,DDF,DEADFALL LAKES,TRINITY RIVER,TRINITY,-122.503,41.318,"7,200",Mount Shasta Ranger District,North Coast
158,DGC,TRINITY RIVER AT DOUGLAS CITY,TRINITY RIVER,TRINITY,-122.956665,40.645279,"1,600",US Geological Survey/US Bureau of Reclamation,North Coast
159,DGY,DRY CK NR GEYSERVILLE,RUSSIAN RIVER,SONOMA,-122.9569,38.6986,156,US Army Corps of Engineers,North Coast
160,DOS,MIDDLE FORK EEL RIVER NEAR DOS RIOS,EEL RIVER,MENDOCINO,-123.325294,39.706268,900,US Geological Survey,North Coast
161,DOT,DOOLEY CK AT OLD TOLL RD NR HOPLAND,RUBICON RIVER,MENDOCINO,-123.0703,38.9761,570,National Weather Service,North Coast
162,DR2,DR FINE BRIDGE 2,SMITH RIVER,DEL NORTE,-124.148283,41.880173,34,CA Dept of Water Resources/DFM-Hydro-SMN,North Coast
163,DRE,DWINNELL RESERVOIR NEAR EDGEWOOD,SHASTA RIVER,SISKIYOU,-122.37455,41.540894,"2,805",Montague Water Conservation District,North Coast
164,DRF,SMITH RIVER AT DR FINE BRIDGE,SMITH RIVER,DEL NORTE,-124.136688,41.880901,63,USGS/DWR-DFM-Hydro-SMN,North Coast
165,DRW,DEERWOOD,RUSSIAN RIVER,MENDOCINO,-123.15992,39.19772,919,Center for Western Weather and Water Extremes,North Coast
166,DRY,DRY CREEK NEAR HEALDSBURG,RUSSIAN RIVER,SONOMA,-122.862213,38.58741,90,US Geological Survey,North Coast
167,DYM,DYNAMITE MEADOW,SCOTT RIVER,SISKIYOU,-122.817,41.233,"5,700",Salmon/Scott River Ranger District,North Coast
168,EEL,EEL RIVER (USFS),EEL RIVER,MENDOCINO,-123.083,39.833,"1,500",US Forest Service,North Coast
169,EFD,EARL LAKE NR FORT DICK,SMITH RIVER,DEL NORTE,-124.1886,41.8428,10,CA Dept of Water Resources/North Region Office,North Coast
170,ELK,ELK VALLEY,SMITH RIVER,DEL NORTE,-123.718338,41.988041,"1,705",USGS/DWR-DFM-Hydro-SMN,North Coast
171,ELP,EEL RIVER BELOW LAKE PILLSBURY 24HR AVG,EEL RIVER,LAKE,-122.9703,39.4081,"1,740",Pacific Gas & Electric,North Coast
172,ERC,EEL RIVER CAMP,EEL RIVER,HUMBOLDT,-123.824,40.138,470,CA Dept of Forestry and Fire Protection,North Coast
173,ERK,EUREKA WOODLEY ISLAND,EEL RIVER,HUMBOLDT,-124.167,40.8,20,National Weather Service,North Coast
174,ERS,EEL RIVER AT SCOTIA,EEL RIVER,HUMBOLDT,-124.099,40.492,36,CA Dept of Fish and Wildlife,North Coast
175,ETN,ETNA MOUNTAIN,SCOTT RIVER,SISKIYOU,-123.001,41.4,"5,900",Salmon/Scott River Ranger District,North Coast
176,EVA,EEL RIVER BELOW VAN ARSDALE DAM 24HR AVG,EEL RIVER,MENDOCINO,-123.115,39.3886,"1,400",Pacific Gas & Electric,North Coast
177,FCC,FRENCH CREEK AT HWY 3 NEAR CALLAHAN,SCOTT RIVER,SISKIYOU,-122.858826,41.411747,"2,840",CA Dept of Water Resources/North Region Office,North Coast
178,FER,EEL RIVER AT FERNBRIDGE,EEL RIVER,HUMBOLDT,-124.2,40.617,20,USGS/DWR,North Coast
179,FJN,FORT JONES RS,SCOTT RIVER,SISKIYOU,-122.85,41.6,"2,725",US Forest Service,North Coast
180,FRR,FORT ROSS,RUSSIAN RIVER,SONOMA,-123.25,38.517,112,National Weather Service,North Coast
181,FSW,EEL RIVER AT FORT SEWARD,EEL RIVER,HUMBOLDT,-123.63253,40.218201,320,USGS/DWR-DFM-Hydro-SMN,North Coast
182,FVC,FIVE CENT,TRINITY RIVER,TRINITY,-122.9308,40.7597,"2,550",US Forest Service,North Coast
183,GAS,GASQUET RANGER STATION,SMITH RIVER,DEL NORTE,-123.965103,41.845161,384,USGS/DWR-DFM-Hydro-SMN,North Coast
184,GBR,GERBER,KLAMATH RIVER,SISKIYOU,-121.13,42.205,"9,999",US Bureau of Reclamation,North Coast
185,GMR,GREEN VALLEY CK AT MARTINELLI RD,RUSSIAN RIVER,SONOMA,-122.9082,38.4786,74,National Weather Service,North Coast
186,GRC,GARCIA RIVER NEAR POINT ARENA,GARCIA RIVER,MENDOCINO,-123.60778,38.90361,80,US Geological Survey,North Coast
187,GVB,RUSSIAN RIVER AT GUERNEVILLE BRIDGE,RUSSIAN RIVER,SONOMA,-122.993,38.501,9,USGS/Sonoma County,North Coast
188,GVC,GRASS VALLEY CK NR LEWISTON,TRINITY RIVER,TRINITY,-122.861137,40.686535,"1,680",US Geological Survey,North Coast
189,GVO,GRASS VALLEY CREEK,TRINITY RIVER,TRINITY,-122.76,40.625,"2,715",US Bureau of Reclamation,North Coast
190,HAC,RUSSIAN RIVER NEAR HACIENDA BRIDGE,RUSSIAN RIVER,SONOMA,-122.927773,38.508522,20,USGS/DWR,North Coast
191,HAP,HAPPY CAMP RS,KLAMATH RIVER,SISKIYOU,-123.367,41.8,"1,120",US Forest Service,North Coast
192,HBL,HINEBAUGH CREEK AT LABATH AVE,RUSSIAN RIVER,SONOMA,-122.721313,38.35048,20,City of Rohnert Park,North Coast
193,HDH,HELLS DELIGHT,RUSSIAN RIVER,MENDOCINO,-123.147305,39.267714,"2,034",Center for Western Weather and Water Extremes,North Coast
194,HDL,HOADLEY,TRINITY RIVER,SHASTA,-122.75,40.683,"4,580",US Bureau of Reclamation,North Coast
195,HEA,RUSSIAN RIVER NEAR HEALDSBURG,RUSSIAN RIVER,SONOMA,-122.83638,38.613243,108,USGS/DWR,North Coast
196,HIG,HIGHLAND LAKES,TRINITY RIVER,TRINITY,-122.491562,41.091782,"6,030",US Bureau of Reclamation,North Coast
197,HKY,HAWKEYE,RUSSIAN RIVER,SONOMA,-122.84,38.727,"2,000",CA Dept of Forestry and Fire Protection,North Coast
198,HNY,HONEYDEW,MATTOLE RIVER,HUMBOLDT,-124.132217,40.237499,370,USGS/DWR-DFM-Hydro-SMN,North Coast
199,HOO,HOOPA,TRINITY RIVER,HUMBOLDT,-123.667,41.05,333,Natural Resources Conservation Service,North Coast
200,HOP,RUSSIAN RIVER NEAR HOPLAND,RUSSIAN RIVER,MENDOCINO,-123.130562,39.026562,498,USGS/USACE,North Coast
201,HPA,TRINITY RIVER AT HOOPA,TRINITY RIVER,HUMBOLDT,-123.673668,41.04985,330,USGS/DWR-DFM-Hydro-SMN,North Coast
202,HYF,HAYFORK,TRINITY RIVER,TRINITY,-123.333,40.5,"4,000",US Forest Service,North Coast
203,ICD,INDIAN CK NR DOUGLAS CITY,TRINITY RIVER,TRINITY,-122.9133,40.6519,"1,670",US Geological Survey,North Coast
204,IHC,INDIAN CREEK NEAR HAPPY CAMP,KLAMATH RIVER,SISKIYOU,-123.38311,41.835125,"1,198",US Geological Survey,North Coast
205,JED,SMITH R NR CRESCENT CITY (JED SMITH SP),SMITH RIVER,DEL NORTE,-124.076187,41.791504,120,USGS/DWR,North Coast
206,KIG,KLAMATH RIVER BELOW IRON GATE DAM,KLAMATH RIVER,SISKIYOU,-122.444191,41.927917,"2,162",US Geological Survey,North Coast
207,KKF,"KENO CANAL AT KLAMATH FALLS, OR",KLAMATH RIVER,State of Oregon,-121.793053,42.221111,"4,400",US Geological Survey,North Coast
208,KLI,KLAMATH R AT IRON GATE,KLAMATH RIVER,SISKIYOU,-122.443,41.928,"2,162",US Geological Survey,North Coast
209,KLM,UPPER KLAMATH,KLAMATH RIVER,SISKIYOU,-121.815,42.25,"4,097",US Bureau of Reclamation,North Coast
210,KLO,KLAMATH R AT ORLEANS,KLAMATH RIVER,ALPINE,-123.533,41.304,356,USGS/DWR,North Coast
211,KMN,KLAMATH NWR,KLAMATH RIVER,SISKIYOU,-121.582,41.953,"4,531",US Fish & Wildlife Service,North Coast
212,KNK,KLAMATH RIVER NEAR KLAMATH,KLAMATH RIVER,DEL NORTE,-123.979515,41.510956,60,US Geological Survey,North Coast
213,KSV,KLAMATH RIVER NEAR SEIAD VALLEY,KLAMATH RIVER,SISKIYOU,-123.232277,41.853737,"1,320",US Geological Survey,North Coast
214,LAY,LAYTONVILLE,EEL RIVER,MENDOCINO,-123.485,39.702,"1,838",CA Dept of Forestry and Fire Protection,North Coast
215,LEG,SOUTH FORK EEL RIVER AT LEGGETT,EEL RIVER,MENDOCINO,-123.720581,39.874596,747,USGS/DWR-DFM-Hydro-SMN,North Coast
216,LEW,LEWISTON,TRINITY RIVER,TRINITY,-122.793,40.727,"1,870",US Bureau of Reclamation,North Coast
217,LFH,LEWISTON FISH HATCHERY,TRINITY RIVER,TRINITY,-122.793,40.727,"1,870",US Bureau of Reclamation,North Coast
218,LKL,LOWER KLAMATH NWR,KLAMATH RIVER,SISKIYOU,-121.7,41.999,"4,098",US Fish & Wildlife Service,North Coast
219,LPY,LAKE PILLSBURY NR POTTER VLY 24HR AVG,EEL RIVER,LAKE,-122.9583,39.4083,"1,828",Pacific Gas & Electric,North Coast
220,LRT,LITTLE RIVER NEAR TRINIDAD,EEL RIVER,HUMBOLDT,-124.081459,41.00985,18,US Geological Survey,North Coast
221,LSH,LITTLE SHASTA,SHASTA RIVER,SISKIYOU,-122.195,41.808,"6,200",Goosenest Ranger District,North Coast
222,LSR,LITTLE SHASTA R NR MONTAGUE,SHASTA RIVER,SISKIYOU,-122.350357,41.733093,"2,800",Nature Conservancy,North Coast
223,LSS,LITTLE SHASTA RIVER BELOW BIG SPRINGS RD,SHASTA RIVER,SISKIYOU,-122.43803,41.706742,"2,605",CA Dept of Water Resources/North Region Office,North Coast
224,LSW,LAKE SONOMA WEATHER,RUSSIAN RIVER,SONOMA,-122.9967,38.7161,224,US Army Corps of Engineers,North Coast
225,LTG,LITTLE SPRINGS CREEK NEAR GRENADA,SHASTA RIVER,SISKIYOU,-122.431656,41.593411,"2,592",CA Dept of Water Resources/North Region Office,North Coast
226,LWS,LEWISTON (WATER QUALITY),TRINITY RIVER,TRINITY,-122.803635,40.719311,"1,830",US Geological Survey/US Bureau of Reclamation,North Coast
227,LYO,LYONS VALLEY,RUSSIAN RIVER,LAKE,-123.071,39.125,"3,200",US Bureau of Land Management,North Coast
228,MB3,MIDDLE BOULDER 3,SCOTT RIVER,SISKIYOU,-122.80616,41.224838,"6,200",US Bureau of Reclamation,North Coast
229,MBL,MIDDLE BOULDER 1,SCOTT RIVER,SISKIYOU,-122.807,41.217,"6,600",Salmon/Scott River Ranger District,North Coast
230,MDF,MAD RIVER (USFS),MAD RIVER,TRINITY,-123.524,40.463,"2,775",US Forest Service,North Coast
231,MNA,MINA,EEL RIVER,MENDOCINO,-123.354488,39.97912,"1,750",Center for Western Weather and Water Extremes,North Coast
232,MPD,MWCD PARKS CK DIVERSION NR EDGEWOOD,SHASTA RIVER,SISKIYOU,-122.447647,41.451805,"3,000",Eyasco Inc.,North Coast
233,MRD,EEL RIVER SF NR MIRANDA (AT SYLVANDALE),EEL RIVER,HUMBOLDT,-123.776146,40.181808,218,USGS/DWR-DFM-Hydro-SMN,North Coast
234,MRE,MATTOLE RIVER NEAR ETTERSBURG,MATTOLE RIVER,HUMBOLDT,-123.991425,40.139309,626,US Geological Survey,North Coast
235,MRF,MAD R ABV RUTH RESERVOIR NR FOREST GLEN,MAD RIVER,TRINITY,-123.335304,40.284313,"2,700",US Geological Survey,North Coast
236,MRK,MARIPOSA CK ABV TOMKI RD,RUSSIAN RIVER,MENDOCINO,-123.2353,39.3322,955,National Weather Service,North Coast
237,MUD,MUD SPRINGS,TRINITY RIVER,TRINITY,-123.289207,40.712132,"3,400",CA Dept of Water Resources/DFM-Hydro-SMN,North Coast
238,MUM,MUMBO BASIN,TRINITY RIVER,TRINITY,-122.525963,41.197819,"5,650",US Bureau of Reclamation,North Coast
239,NCW,NORTH COW MOUNTAIN,RUSSIAN RIVER,MENDOCINO,-123.08,39.1796,"3,416",Center for Western Weather and Water Extremes,North Coast
240,NFH,TRINITY R ABV NF TRINITY NR HELENA,TRINITY RIVER,TRINITY,-123.114476,40.766531,"1,380",US Geological Survey/US Bureau of Reclamation,North Coast
241,NLS,NOEL SPRING,STONY CREEK,GLENN,-122.667,39.538,"5,100",US Army Corps of Engineers,North Coast
242,NOY,NOYO RIVER NR FORT BRAGG,NOYO RIVER,MENDOCINO,-123.737793,39.428223,12,US Geological Survey,North Coast
243,NRN,NAVARRO RIVER NEAR NAVARRO,NAVARRO RIVER,MENDOCINO,-123.668068,39.170456,5,US Geological Survey,North Coast
244,OKK,OAK KNOLL,SMITH RIVER,DEL NORTE,-123.833,41.833,"1,940",US Forest Service,North Coast
245,OKN,O'KANE (BLUE LAKE),REDWOOD CREEK,HUMBOLDT,-123.815338,40.905964,850,USGS/DWR,North Coast
246,OLS,KLAMATH RIVER AT ORLEANS,KLAMATH RIVER,HUMBOLDT,-123.5345,41.303459,430,USGS/DWR-DFM-Hydro-SMN,North Coast
247,ORK,REDWOOD CREEK AT ORICK,REDWOOD CREEK,HUMBOLDT,-124.051186,41.29929,36,USGS/DWR-DFM-Hydro-SMN,North Coast
248,PET,PETERSON FLAT,TRINITY RIVER,TRINITY,-122.527779,41.302219,"7,150",US Bureau of Reclamation,North Coast
249,PME,PARKS CK BLW MWCD DIVERSION NR EDGEWOOD,SHASTA RIVER,SISKIYOU,-122.44748,41.45293,"3,010",Eyasco Inc.,North Coast
250,PRK,PARKS CREEK,SHASTA RIVER,SISKIYOU,-122.55,41.367,"6,700",Mount Shasta Ranger District,North Coast
251,PSM,PLASKETT MEADOWS,EEL RIVER,GLENN,-122.85,39.725,"6,000",US Army Corps of Engineers,North Coast
252,PTA,MATTOLE RIVER NEAR PETROLIA,MATTOLE RIVER,HUMBOLDT,-124.283379,40.31319,40,US Geological Survey,North Coast
253,PTV,POTTER VALLEY,RUSSIAN RIVER,MENDOCINO,-123.1272,39.3644,"1,080",US Army Corps of Engineers,North Coast
254,PVC,POTTER VALLEY CENTRAL,RUSSIAN RIVER,MENDOCINO,-123.102822,39.320914,951,Center for Western Weather and Water Extremes,North Coast
255,PVN,POTTER VALLEY NORTH,RUSSIAN RIVER,MENDOCINO,-123.11321,39.36126,"1,326",Center for Western Weather and Water Extremes,North Coast
256,PVP,POTTER VALLEY PH,RUSSIAN RIVER,MENDOCINO,-123.133,39.367,"1,020",Pacific Gas & Electric,North Coast
257,PVY,POTTER VALLEY PG&E - 24HR AVG,RUSSIAN RIVER,MENDOCINO,-123.127,39.362,"1,080",Pacific Gas & Electric,North Coast
258,Q01,WQ01,EEL RIVER,MENDOCINO,-123.326,39.37687,"1,454",CA Dept of Transportation (Caltrans),North Coast
259,Q03,WQ03,EEL RIVER,MENDOCINO,-123.328,39.37711,"1,447",CA Dept of Transportation (Caltrans),North Coast
260,Q04,WQ04,EEL RIVER,MENDOCINO,-123.342,39.39646,"1,383",CA Dept of Transportation (Caltrans),North Coast
261,Q05,WQ05,EEL RIVER,MENDOCINO,-123.341,39.39896,"1,360",CA Dept of Transportation (Caltrans),North Coast
262,Q06,WQ06,EEL RIVER,MENDOCINO,-123.343,39.40728,"1,363",CA Dept of Transportation (Caltrans),North Coast
263,Q07,WQ07,EEL RIVER,MENDOCINO,-123.341,39.41096,"1,352",CA Dept of Transportation (Caltrans),North Coast
264,Q08,WQ08,EEL RIVER,MENDOCINO,-123.34,39.40978,"1,361",CA Dept of Transportation (Caltrans),North Coast
265,Q09,WQ09,EEL RIVER,MENDOCINO,-123.34,39.41096,"1,338",CA Dept of Transportation (Caltrans),North Coast
266,Q10,WQ10,EEL RIVER,MENDOCINO,-123.341,39.41942,"1,350",CA Dept of Transportation (Caltrans),North Coast
267,Q11,WQ11,EEL RIVER,MENDOCINO,-123.341,39.42124,"1,361",CA Dept of Transportation (Caltrans),North Coast
268,Q12,WQ12,EEL RIVER,MENDOCINO,-123.341,39.41833,"1,358",CA Dept of Transportation (Caltrans),North Coast
269,Q13,WQ13,EEL RIVER,MENDOCINO,-123.343,39.42057,"1,342",CA Dept of Transportation (Caltrans),North Coast
270,Q14,WQ14,EEL RIVER,MENDOCINO,-123.344,39.4225,"1,340",CA Dept of Transportation (Caltrans),North Coast
271,Q15,WQ15,EEL RIVER,MENDOCINO,-123.358,39.42767,"1,334",CA Dept of Transportation (Caltrans),North Coast
272,Q17,WQ17,EEL RIVER,MENDOCINO,-123.355,39.43056,"1,343",CA Dept of Transportation (Caltrans),North Coast
273,QTZ,QUARTZ HILL,SCOTT RIVER,SISKIYOU,-122.929,41.6,"4,238",CA Dept of Forestry and Fire Protection,North Coast
274,RCL,RUSH CREEK NEAR LEWISTON,TRINITY RIVER,TRINITY,-122.834,40.725,"1,700",US Geological Survey/US Bureau of Reclamation,North Coast
275,RDO,RODEO VALLEY,EEL RIVER,MENDOCINO,-123.32,39.667,"2,425",CA Dept of Forestry and Fire Protection,North Coast
276,RRH,RUSSIAN R NR HEALDSBERG,RUSSIAN RIVER,SONOMA,-122.835,38.613,77,US Geological Survey,North Coast
277,RRM,RED ROCK MOUNTAIN,TRINITY RIVER,TRINITY,-122.886627,41.023621,"6,700",US Bureau of Reclamation,North Coast
278,RRU,RUSSIAN R NR UKIAH,RUSSIAN RIVER,MENDOCINO,-123.1939,39.1956,599,US Army Corps of Engineers,North Coast
279,RTD,RUTH  DAM,MAD RIVER,TRINITY,-123.433,40.367,"2,675",Humboldt Bay Muncipal Water District,North Coast
280,RTH,RUTH LAKE,MAD RIVER,HUMBOLDT,-123.374001,40.318539,"2,700",USGS/DWR-DFM-Hydro-SMN,North Coast
281,RVY,REDWOOD VALLEY PINEVIEW,RUSSIAN RIVER,MENDOCINO,-123.30475,39.285172,"1,230",Center for Western Weather and Water Extremes,North Coast
282,SBG,SHASTA R BLW CTY RD A-12 NR GRENADA,SHASTA RIVER,SISKIYOU,-122.49917,41.64907,"2,490",CA Dept of Water Resources/North Region Office,North Coast
283,SCA,SCOTIA,EEL RIVER,HUMBOLDT,-124.1,40.483,139,National Weather Service,North Coast
284,SCD,SCOTT DAM,EEL RIVER,LAKE,-122.9586,39.4083,"1,807",Pacific Gas & Electric,North Coast
285,SCK,SHACKLEFORD CK NR MUGGINSVILLE,SCOTT RIVER,SISKIYOU,-122.965668,41.624813,"2,690",CA Dept of Water Resources/North Region Office,North Coast
286,SCO,EEL RIVER AT SCOTIA,EEL RIVER,HUMBOLDT,-124.09977,40.491524,160,USGS/DWR,North Coast
287,SCP,SCORPION,TRINITY RIVER,TRINITY,-122.697,41.112,"4,400",US Forest Service,North Coast
288,SCT,SCOTT MOUNTAIN,SCOTT RIVER,SISKIYOU,-122.719482,41.272202,"5,900",US Bureau of Reclamation,North Coast
289,SDA,SUGAR CK BLW DARBEE DITCH NR CALLAHAN,SCOTT RIVER,SISKIYOU,-122.869484,41.315681,"3,400",CA Dept of Water Resources/North Region Office,North Coast
290,SFJ,SCOTT RIVER NEAR FORT JONES,KLAMATH RIVER,SISKIYOU,-123.015038,41.64069,"2,623",USGS/Quartz Valley Tribe,North Coast
291,SGN,SUGAR CK NR CALLAHAN,SCOTT RIVER,SISKIYOU,-122.843391,41.328594,"3,130",CA Dept of Water Resources/North Region Office,North Coast
292,SHM,SHIMMY LAKE,TRINITY RIVER,TRINITY,-122.801598,41.005299,"6,400",US Bureau of Reclamation,North Coast
293,SMS,SALMON RIVER AT SOMES BAR,SALMON RIVER,SISKIYOU,-123.477005,41.376514,483,US Geological Survey,North Coast
294,SNO,SONOMA COUNTY AIRPORT (SANTA ROSA),RUSSIAN RIVER,SONOMA,-122.81028,38.503887,114,National Weather Service,North Coast
295,SOD,SODA CREEK,EEL RIVER,LAKE,-122.977222,39.425278,"1,773",US Forest Service,North Coast
296,SPU,SHASTA R AT GRENADA PUMP PLANT,SHASTA RIVER,SISKIYOU,-122.47111,41.61,"2,560",CA Dept of Water Resources/North Central Region Office,North Coast
297,SQP,ACORN WOMAN PEAK,KLAMATH RIVER,SISKIYOU,-123.0117,42.0697,"4,964",US Forest Service,North Coast
298,SRB,SLATER BUTTE,KLAMATH RIVER,SISKIYOU,-123.354,41.858,"4,670",US Forest Service,North Coast
299,SRD,SHASTA RIVER BELOW DWINNELL,SHASTA RIVER,SISKIYOU,-122.376831,41.543378,"2,750",Montague Water Conservation District,North Coast
300,SRE,SHASTA R NR EDGEWOOD,SHASTA RIVER,SISKIYOU,-122.4394,41.472881,"3,000",CA Dept of Water Resources/North Region Office,North Coast
301,SRM,SHASTA RIVER NEAR MONTAGUE,SHASTA RIVER,SISKIYOU,-122.538078,41.70903,"2,458",US Geological Survey,North Coast
302,SRO,SANTA ROSA,RUSSIAN RIVER,SONOMA,-122.753,38.445,109,Sonoma County,North Coast
303,SRS,SALMON R AT SOMES BAR,SALMON RIVER,SISKIYOU,-123.476,41.378,483,US Geological Survey,North Coast
304,SRY,SHASTA RIVER NEAR YREKA,SHASTA RIVER,SISKIYOU,-122.595581,41.822918,"2,000",US Geological Survey,North Coast
305,SSB,SOMES BAR,KLAMATH RIVER,HUMBOLDT,-123.5,41.333,920,US Forest Service,North Coast
306,STA,SANTA ROSA (CDF),RUSSIAN RIVER,SONOMA,-122.712,38.479,560,CA Dept of Forestry and Fire Protection,North Coast
307,SVB,BOLAM,KLAMATH RIVER,SISKIYOU,-122.206951,41.476088,"6,800",Shasta Valley Resource Conservation District,North Coast
308,SVG,GOOSENEST,KLAMATH RIVER,SISKIYOU,-122.217736,41.727105,"7,300",Shasta Valley Resource Conservation District,North Coast
309,SWJ,SWAMPY JOHN,SCOTT RIVER,SISKIYOU,-122.993,41.397,"5,500",Salmon/Scott River Ranger District,North Coast
310,SWT,SWEETWATER,SHASTA RIVER,SISKIYOU,-122.53529,41.38197,"5,850",Mount Shasta Ranger District,North Coast
311,SYB,SAWYERS BAR,SALMON RIVER,SISKIYOU,-123.117,41.3,"4,500",US Forest Service,North Coast
312,TBH,SOUTH FORK TRINITY RIVER BELOW HYAMPOM,TRINITY RIVER,HUMBOLDT,-123.494202,40.649864,12,US Geological Survey,North Coast
313,TBR,TRINITY RIVER NEAR BURNT RANCH,TRINITY RIVER,TRINITY,-123.440041,40.78875,944,US Geological Survey,North Coast
314,TGS,TRINITY GUARD STATION,TRINITY RIVER,TRINITY,-122.66,40.825,"4,100",US Bureau of Reclamation,North Coast
315,TJC,TRINITY R AT JUNCTION CITY,TRINITY RIVER,TRINITY,-123.061974,40.728477,"1,445",US Geological Survey,North Coast
316,TLK,TRINITY RIVER BELOW LIMEKILN GULCH,TRINITY RIVER,TRINITY,-122.919,40.673,"1,650",US Geological Survey/US Bureau of Reclamation,North Coast
317,TNC,TRINITY CAMP,TRINITY RIVER,TRINITY,-122.833,40.679,"2,100",CA Dept of Forestry and Fire Protection,North Coast
318,TNL,TRINITY R AT LEWISTON,TRINITY RIVER,TRINITY,-122.802,40.719,"1,816",US Bureau of Reclamation,North Coast
319,TRC,TRINITY R ABV COFFEE CR NR TRINITY CTR,TRINITY RIVER,TRINITY,-122.705582,41.111256,"2,537",US Geological Survey,North Coast
320,TTT,TEST STATION,ALAMEDA CREEK,ALAMEDA,-120.7,34.3,"1,000",CA Dept of Water Resources,North Coast
321,TUR,KLAMATH R NR KLAMATH (TURWAR CREEK),KLAMATH RIVER,DEL NORTE,-123.999123,41.515228,6,USGS/DWR-DFM-Hydro-SMN,North Coast
322,TYR,TAYLOR RIDGE,TRINITY RIVER,TRINITY,-122.817,40.917,"4,000",US Bureau of Reclamation,North Coast
323,UKH,UKIAH,RUSSIAN RIVER,MENDOCINO,-123.2,39.15,633,National Weather Service,North Coast
324,VAR,VAN ARSDALE RESERVOIR 24HR AVG,EEL RIVER,MENDOCINO,-123.1025,39.3839,"1,494",Pacific Gas & Electric,North Coast
325,VEN,VENADO,RUSSIAN RIVER,SONOMA,-123.018059,38.6087,"1,260",CA Dept of Water Resources/DFM-Hydro-SMN,North Coast
326,W3B,WILLOW CK NR 3RD BRIDGE,RUSSIAN RIVER,SONOMA,-123.06781,38.430408,82,National Weather Service,North Coast
327,WDG,WINDY GAP,RUSSIAN RIVER,LAKE,-123.00495,39.23437,"2,736",Center for Western Weather and Water Extremes,North Coast
328,WED,WEED AIRPORT,SHASTA RIVER,SISKIYOU,-122.45472,41.478889,"2,930",CA Dept of Forestry and Fire Protection,North Coast
329,WHN,WHALAN,TRINITY RIVER,TRINITY,-122.45,41.15,"5,400",Weaverville Ranger District,North Coast
330,WIL,WILLITS HOWARD RS,RUSSIAN RIVER,MENDOCINO,-123.3217,39.3506,"1,925",CA Dept of Water Resources/DFM-Hydro-SMN,North Coast
331,WLC,WOLFORD CABIN,TRINITY RIVER,TRINITY,-122.833,41.2,"6,150",Salmon/Scott River Ranger District,North Coast
332,WRM,DRY CK BLW WARM SPRINGS DAM,RUSSIAN RIVER,SONOMA,-122.9994,38.7197,188,US Army Corps of Engineers,North Coast
333,WRS,WARM SPRINGS (LAKE SONOMA),RUSSIAN RIVER,SONOMA,-123.01,38.723,440,US Army Corps of Engineers,North Coast
334,WSP,WHISPERING PINES,PUTAH CREEK,LAKE,-122.708328,38.805828,"2,700",CA Dept of Water Resources/DFM-Hydro-SMN,North Coast
335,WVR,WEAVERVILLE RS,TRINITY RIVER,TRINITY,-122.95,40.733,"2,050",US Forest Service,North Coast
336,YCK,YREKA CREEK AT ANDERSON GRADE ROAD,SHASTA RIVER,SISKIYOU,-122.604346,41.771958,"2,400",Shasta Valley Resource Conservation District,North Coast
337,YOR,YORKVILLE,RUSSIAN RIVER,MENDOCINO,-123.23111,38.904999,"1,100",CA Dept of Water Resources/DFM-Hydro-SMN,North Coast
338,YRK,YREKA,KLAMATH RIVER,SISKIYOU,-122.633,41.7,"2,625",US Forest Service,North Coast
339,ZEN,ZENIA,EEL RIVER,TRINITY,-123.459793,40.208401,"4,000",CA Dept of Water Resources/DFM-Hydro-SMN,North Coast
340,BCA,BOCA,TRUCKEE RIVER,NEVADA,-120.1,39.383,"5,575",National Weather Service,North Lahontan
341,BDE,BODIE,WALKER RIVER,MONO,-119.017,38.217,"8,370",National Weather Service,North Lahontan
342,BDG,BRIDGEPORT R S,WALKER RIVER,MONO,-119.233,38.25,"6,470",US Forest Service,North Lahontan
343,BDP,BRIDGEPORT RESERVOIR,WALKER RIVER,MONO,-119.211,38.325,"6,466",Walker River Irrigation District,North Lahontan
344,BFC,BUFFALO CREEK,NOT SPECIFIED,State of Nevada,-119.79,40.5819,"3,900",US Bureau of Land Management,North Lahontan
345,BGD,BOGARD RANGER STATION,SUSAN RIVER,LASSEN,-121.08,40.59,"5,680",CA Dept of Forestry and Fire Protection,North Lahontan
346,BIJ,"BIJOU, SOUTH LAKE TAHOE",TRUCKEE RIVER,EL DORADO,-119.96337,38.94191,"6,266",Center for Western Weather and Water Extremes,North Lahontan
347,BMW,BIG MEADOWS (SCS),TRUCKEE RIVER,State of Nevada,-119.946,39.458,"8,700",Natural Resources Conservation Service,North Lahontan
348,BOC,BOCA RESERVOIR,TRUCKEE RIVER,NEVADA,-120.095,39.388,"5,521",US Bureau of Reclamation,North Lahontan
349,BPT,BRIDGEPORT,WALKER RIVER,MONO,-119.289,38.272,"6,650",US Forest Service,North Lahontan
350,BRR,BARREL SPRINGS,PIT RIVER,State of Nevada,-119.9389,41.9111,"5,835",US Bureau of Land Management,North Lahontan
351,BSK,BURNSIDE LAKE,CARSON RIVER,ALPINE,-119.8942,38.7194,"8,129",Natural Resources Conservation Service,North Lahontan
352,CDV,CEDARVILLE,SURPRISE VALLEY,MODOC,-120.167,41.533,"4,670","Southern California Edison Company, Big Creek",North Lahontan
353,CEM,E FK CARSON R NR MARKLEEVILLE,CARSON RIVER,ALPINE,-119.7647,38.7147,"5,400",US Geological Survey,North Lahontan
354,CEN,CENTRAL REGION SNOW,YUBA RIVER,none specified,-120.1,38.6,"5,000",CA Dept of Water Resources/DFM-Hydro-Water Supply Fcasting,North Lahontan
355,CVL,WEST WALKER NR HWY 395 BLW LITTLE WALKER,WALKER RIVER,MONO,-119.454,38.515,"5,520",National Weather Service,North Lahontan
356,DCK,DONNER CREEK AT HWY 89,TRUCKEE RIVER,NEVADA,-120.207977,39.321018,"5,870",US Geological Survey,North Lahontan
357,DMS,DONNER MEM ST PARK,TRUCKEE RIVER,NEVADA,-120.233,39.317,"5,937",National Weather Service,North Lahontan
358,DNC,DONNER CREEK AT DONNER LAKE,TRUCKEE RIVER,NEVADA,-120.234367,39.323517,"5,924",US Geological Survey,North Lahontan
359,DNN,DONNER LAKE,TRUCKEE RIVER,NEVADA,-120.2644,39.322777,"5,945",US Geological Survey,North Lahontan
360,DSS,DISMAL SWAMP,SURPRISE VALLEY,MODOC,-120.165,41.993,"7,050",Natural Resources Conservation Service,North Lahontan
361,DYE,DOYLE (BLM),SUSAN RIVER,LASSEN,-120.106,40.022,"4,240",CA Dept of Forestry and Fire Protection,North Lahontan
362,DYL,DOYLE,SUSAN RIVER,LASSEN,-120.1,40.033,"4,240",National Weather Service,North Lahontan
363,EBB,EBBETTS PASS,CARSON RIVER,ALPINE,-119.808,38.561,"8,700",Natural Resources Conservation Service,North Lahontan
364,ECO,ECHO LAKE,TRUCKEE RIVER,EL DORADO,-120.037,38.831,"7,420",El Dorado Irrigation District,North Lahontan
365,EFC,EAST FK CARSON RIVER NR GARDNERVILLE,CARSON RIVER,State of Nevada,-119.703,38.847,"4,985",US Geological Survey,North Lahontan
366,EP5,ECHO PEAK 5,LAKE TAHOE,EL DORADO,-120.079,38.849,"7,800",Natural Resources Conservation Service,North Lahontan
367,EWR,EAST WALKER RIVER NR BRIDGEPORT,WALKER RIVER,MONO,-119.214,38.328,"6,400",US Geological Survey,North Lahontan
368,FAR,TRUCKEE RIVER AT FARAD,TRUCKEE RIVER,NEVADA,-120.034088,39.427963,"5,153",US Geological Survey,North Lahontan
369,FBN,FREEL BENCH,LAKE TAHOE,EL DORADO,-119.95,38.85,"7,300",Natural Resources Conservation Service,North Lahontan
370,FBW,FORT BIDWELL,SURPRISE VALLEY,MODOC,-120.133,41.85,"4,500",National Weather Service,North Lahontan
371,FDC,FORESTDALE CREEK,CARSON RIVER,ALPINE,-119.9597,38.6824,"8,017",Natural Resources Conservation Service,North Lahontan
372,FLL,FALLEN LEAF LAKE,LAKE TAHOE,EL DORADO,-120.056,38.932,"6,250",Natural Resources Conservation Service,North Lahontan
373,GDV,EAST FORK CARSON R NEAR GARDNERVILLE,CARSON RIVER,State of Nevada,-119.703,38.847,"4,985",US Geological Survey,North Lahontan
374,GHS,GROVER HOT SPRINGS,CARSON RIVER,ALPINE,-119.817,38.694,"5,820",CA Dept of Parks and Recreation,North Lahontan
375,GL2,GLENBROOK 2 (NEVADA),LAKE TAHOE,State of Nevada,-119.908,39.083,"6,900","Truckee River Basin Water Committee, Reno",North Lahontan
376,GRS,GRASSHOPPER,SUSAN RIVER,LASSEN,-120.784447,40.781666,"6,050",CA Dept of Forestry and Fire Protection,North Lahontan
377,HGM,HAGANS MEADOW,LAKE TAHOE,EL DORADO,-119.94,38.853,"8,000",Natural Resources Conservation Service,North Lahontan
378,HOR,HORSE MEADOW (NRCS),CARSON RIVER,ALPINE,-119.8873,38.8365,"8,557",Natural Resources Conservation Service,North Lahontan
379,HVN,HEAVENLY VALLEY,LAKE TAHOE,EL DORADO,-119.917,38.929,"8,800",Natural Resources Conservation Service,North Lahontan
380,IDC,INDEPENDENCE CAMP,TRUCKEE RIVER,SIERRA,-120.298548,39.452588,"7,000",Natural Resources Conservation Service,North Lahontan
381,IDP,INDEPENDENCE LAKE (SCS),TRUCKEE RIVER,NEVADA,-120.322,39.435,"8,450",Natural Resources Conservation Service,North Lahontan
382,INC,INDEPENDENCE CREEK NEAR TRUCKEE,TRUCKEE RIVER,SIERRA,-120.287148,39.456572,"6,920",US Geological Survey,North Lahontan
383,INN,INDEPENDENCE CREEK,TRUCKEE RIVER,SIERRA,-120.293,39.494,"6,500",Natural Resources Conservation Service,North Lahontan
384,INP,INDEPENDENCE LAKE NEAR TRUCKEE,TRUCKEE RIVER,SIERRA,-120.29,39.452,"6,921",US Geological Survey,North Lahontan
385,LAB,LITTLE TRUCKEE R ABV BOCA RESERVOIR,TRUCKEE RIVER,NEVADA,-120.084366,39.435741,"5,619",USGS/DWR,North Lahontan
386,LBD,LOBDELL LAKE,WALKER RIVER,MONO,-119.377,38.44,"9,200",Natural Resources Conservation Service,North Lahontan
387,LLL,LAKE LUCILLE,LAKE TAHOE,EL DORADO,-120.112,38.86,"8,200","Truckee River Basin Water Committee, Reno",North Lahontan
388,LTK,LITTLE TRUCKEE R BL BOCA RES,TRUCKEE RIVER,NEVADA,-120.095474,39.386852,"5,500",US Geological Survey,North Lahontan
389,LVM,LEAVITT MEADOWS,WALKER RIVER,MONO,-119.552,38.305,"7,200",Natural Resources Conservation Service,North Lahontan
390,LVT,LEAVITT LAKE,WALKER RIVER,MONO,-119.621,38.282,"9,600",Natural Resources Conservation Service,North Lahontan
391,LWO,LITTLE WASHOE LAKE,TRUCKEE RIVER,WASHOE (NV),-119.802069,39.329748,"5,070",US Water Master Office Reno,North Lahontan
392,MKV,MARKLEEVILLE,CARSON RIVER,ALPINE,-119.783,38.7,"5,530",National Weather Service,North Lahontan
393,MNT,MONITOR PASS,CARSON RIVER,ALPINE,-119.615,38.67,"8,350",Natural Resources Conservation Service,North Lahontan
394,MRL,MARLETTE LAKE,LAKE TAHOE,State of Nevada,-119.905,39.173,"8,000",Natural Resources Conservation Service,North Lahontan
395,MRO,MOUNT ROSE,TRUCKEE RIVER,State of Nevada,-119.898,39.353,"9,000",Natural Resources Conservation Service,North Lahontan
396,MRT,MARTIS CREEK RESERVOIR,TRUCKEE RIVER,NEVADA,-120.113,39.327,"5,745",US Army Corps of Engineers,North Lahontan
397,MSK,MOUNT ROSE SKI AREA,LAKE TAHOE,State of Nevada,-119.902,39.326,"8,900",Natural Resources Conservation Service,North Lahontan
398,MTK,MARTIS CK NR TRUCKEE,TRUCKEE RIVER,NEVADA,-120.117699,39.328796,"5,730",US Army Corps of Engineers,North Lahontan
399,NOR,NORTHERN REGION SNOW,TRINITY RIVER,none specified,-121.3,40.6,"5,000",CA Dept of Water Resources/DFM-Hydro-Water Supply Fcasting,North Lahontan
400,NRF,NORVELL FLAT,SUSAN RIVER,LASSEN,-121.007,40.482,"5,700",Eagle Lake Ranger District,North Lahontan
401,PRS,PROSSER CREEK RESERVOIR,TRUCKEE RIVER,NEVADA,-120.1367,39.3794,"5,622",US Bureau of Reclamation,North Lahontan
402,PSN,POISON FLAT,CARSON RIVER,ALPINE,-119.631,38.501,"7,900",Natural Resources Conservation Service,North Lahontan
403,PTK,PROSSER CREEK NEAR TRUCKEE,TRUCKEE RIVER,NEVADA,-120.131584,39.373241,"5,602",US Geological Survey,North Lahontan
404,RAV,RAVENDALE,SUSAN RIVER,LASSEN,-120.316,40.731,"5,298",US Forest Service,North Lahontan
405,RCH,RICHARDSONS 2,LAKE TAHOE,EL DORADO,-120.05,38.917,"6,500","Truckee River Basin Water Committee, Reno",North Lahontan
406,RP1,RUBICON PEAK 1,LAKE TAHOE,EL DORADO,-120.142,38.992,"8,100","Truckee River Basin Water Committee, Reno",North Lahontan
407,RP2,RUBICON PEAK 2,LAKE TAHOE,EL DORADO,-120.14,39.001,"7,500",Natural Resources Conservation Service,North Lahontan
408,SDW,SUMMIT MEADOW,WALKER RIVER,MONO,-119.5356,38.3975,"9,313",Natural Resources Conservation Service,North Lahontan
409,SGH,SAGEHEN CREEK,TRUCKEE RIVER,NEVADA,-120.233,39.433,"6,337",National Weather Service,North Lahontan
410,SLH,SOUTH LAKE TAHOE AIRPORT,TRUCKEE RIVER,EL DORADO,-119.99472,38.898335,"6,314",National Weather Service,North Lahontan
411,SPL,STAMPEDE (USFS),TRUCKEE RIVER,SIERRA,-120.054,39.483,"6,867",CA Dept of Forestry and Fire Protection,North Lahontan
412,SPS,SONORA PASS BRIDGE,WALKER RIVER,MONO,-119.601,38.318,"8,750",Natural Resources Conservation Service,North Lahontan
413,SPT,SPRATT CREEK,CARSON RIVER,ALPINE,-119.81742,38.66627,"6,150",Natural Resources Conservation Service,North Lahontan
414,SQ2,PALISADES TAHOE #2,TRUCKEE RIVER,PLACER,-120.248,39.188,"7,700",Natural Resources Conservation Service,North Lahontan
415,SQV,PALISADES TAHOE SNOTEL,TRUCKEE RIVER,PLACER,-120.276,39.194,"8,200",Natural Resources Conservation Service,North Lahontan
416,SRP,SONORA PASS,WALKER RIVER,MONO,-119.607,38.313,"8,750","Pacific Gas and Electric Company, Angels Camp",North Lahontan
417,SSD,SUSAN R NR STANDISH,SUSAN RIVER,LASSEN,-120.435036,40.381092,"4,030",CA Dept of Water Resources/North Region Office,North Lahontan
418,SSN,SUSANVILLE,SUSAN RIVER,LASSEN,-120.567,40.367,"4,148",CA Dept of Forestry and Fire Protection,North Lahontan
419,SSU,SUSAN RIVER AT SUSANVILLE,SUSAN RIVER,LASSEN,-120.664223,40.413715,"4,190",CA Dept of Water Resources/North Region Office,North Lahontan
420,STP,STAMPEDE,TRUCKEE RIVER,SIERRA,-120.103,39.471,"5,956",US Geological Survey,North Lahontan
421,SVR,SILVER LAKE MEADOWS,SUSAN RIVER,LASSEN,-121.153,40.497,"6,450",Eagle Lake Ranger District,North Lahontan
422,SWL,SAWMILL RIDGE,WALKER RIVER,none specified,-119.35,38.183,"8,750",Natural Resources Conservation Service,North Lahontan
423,TAC,TAHOE CITY (NWS),LAKE TAHOE,PLACER,-120.133,39.167,"6,230",National Weather Service,North Lahontan
424,TCC,TAHOE CITY CROSS,LAKE TAHOE,PLACER,-120.154658,39.171439,"6,750",Natural Resources Conservation Service,North Lahontan
425,THC,LAKE TAHOE AT TAHOE CITY,TRUCKEE RIVER,PLACER,-120.119,39.182,"6,230",USGS/DWR,North Lahontan
426,TK2,TRUCKEE 2,TRUCKEE RIVER,PLACER,-120.194,39.3,"6,400",Natural Resources Conservation Service,North Lahontan
427,TKE,TRUCKEE RS (OBS),TRUCKEE RIVER,NEVADA,-120.183,39.333,"6,020",US Forest Service,North Lahontan
428,TKT,TRUCKEE RIVER AT TAHOE,LAKE TAHOE,PLACER,-120.143,39.164,"6,217",US Geological Survey,North Lahontan
429,TOT,COMBINED SSD & WCD FLOWS,SUSAN RIVER,LASSEN,-120.4342,40.3814,"4,030",CA Dept of Water Resources/Operations and Maintenance,North Lahontan
430,TRF,TRUCKEE RIVER AT FARAD,LAKE TAHOE,NEVADA,-120.033,39.428,"5,153",US Geological Survey,North Lahontan
431,TRK,TRUCKEE RIVER NEAR TRUCKEE,TRUCKEE RIVER,NEVADA,-120.205475,39.296295,"5,858",US Geological Survey,North Lahontan
432,TTC,TRUCKEE RIVER AT TAHOE CITY,TRUCKEE RIVER,PLACER,-120.144356,39.166294,"5,930",US Geological Survey,North Lahontan
433,UPT,UPPER TRUCKEE AT SOUTH LAKE TAHOE,TRUCKEE RIVER,EL DORADO,-119.99157,38.922409,"6,229",US Geological Survey,North Lahontan
434,UTR,UPPER TRUCKEE,LAKE TAHOE,EL DORADO,-119.983,38.873,"6,400",Natural Resources Conservation Service,North Lahontan
435,VRG,VIRGINIA LAKES RIDGE,WALKER RIVER,MONO,-119.234,38.077,"9,300",Natural Resources Conservation Service,North Lahontan
436,WBB,WEBBER LAKE,TRUCKEE RIVER,SIERRA,-120.425,39.485,"7,000",Nevada Irrigation District,North Lahontan
437,WC3,WARD CREEK 3,LAKE TAHOE,PLACER,-120.218678,39.135574,"6,750",Natural Resources Conservation Service,North Lahontan
438,WCD,WILLOW CREEK NEAR STANDISH,SUSAN RIVER,LASSEN,-120.434998,40.381168,"4,030",CA Dept of Water Resources/North Region Office,North Lahontan
439,WDD,CARSON RIVER WF AT WOODFORDS,CARSON RIVER,ALPINE,-119.832,38.769,"5,754",National Weather Service,North Lahontan
440,WFC,WEST FORK CARSON RIVER AT WOODFORDS,CARSON RIVER,ALPINE,-119.832,38.769,"5,755",US Geological Survey,North Lahontan
441,WLF,WILLOW FLAT,WALKER RIVER,MONO,-119.45,38.275,"8,250",Natural Resources Conservation Service,North Lahontan
442,WR2,WARD CREEK 2,LAKE TAHOE,PLACER,-120.225,39.142,"7,000",Lake Tahoe Basin Management Unit,North Lahontan
443,WWR,WEST WALKER RIVER NR COLEVILLE,WALKER RIVER,MONO,-119.449,38.378,"6,591",US Geological Survey,North Lahontan
444,X08,HAWKINS PEAK,CARSON RIVER,ALPINE,-119.85238,38.7425,"8,800",CA Dept of Water Resources/DFM-Hydro-SMN,North Lahontan
445,07K,19N2E07K2-4M HARRIS RD NR RICHVALE,BUTTE CREEK,BUTTE,-121.787979,39.511768,93,Butte County,Sacramento River
446,13L,21N1E13L2-4M CHICO UNIV FARM,BUTTE CREEK,BUTTE,-121.814422,39.673446,151,Butte County,Sacramento River
447,24C,20N2E24C1-3M NELSON RD NR ADOBE RD,BUTTE CREEK,BUTTE,-121.70258,39.581272,150,Butte County,Sacramento River
448,3LK,THREE LAKES,FEATHER RIVER,PLUMAS,-121.2131,39.97304,"6,264","Pacific Gas and Electric Company, Rogers Flat",Sacramento River
449,8RI,8 RIVER FULL NATURAL FLOW INDEX,SACRAMENTO RIVER,CONTRA COSTA,-121.8853,38.047222,0,CA Dept of Water Resources/DFM-Hydro-Water Supply Fcasting,Sacramento River
450,8SI,NORTHERN SIERRA 8-STATION PRECIP INDEX,SACRAMENTO RIVER,PLUMAS,-120.9,39.9,0,CA Dept of Water Resources/DFM-Hydro-Water Supply Fcasting,Sacramento River
451,A25,CHILI BAR POWERHOUSE,AMERICAN RIVER,EL DORADO,-120.813286,38.771713,"1,000",Pacific Gas & Electric,Sacramento River
452,ABN,LAKE AUDRAIN,AMERICAN RIVER,EL DORADO,-120.03932,38.81983,"7,300",Placerville Ranger District,Sacramento River
453,ABY,ABBEY,FEATHER RIVER,PLUMAS,-120.538,39.955,"5,650",CA Dept of Water Resources/Beckwourth,Sacramento River
454,ACK,ARCADE CK NR DEL PASO HTS,AMERICAN RIVER,SACRAMENTO,-121.3825,38.6416,50,US Geological Survey,Sacramento River
455,ACR,ASH CK AT ADIN,PIT RIVER,MODOC,-120.943394,41.19807,"4,203",CA Dept of Water Resources/North Region Office,Sacramento River
456,ADI,ADIN MOUNTAIN,PIT RIVER,MODOC,-120.793,41.237,"6,200",Big Valley Ranger District,Sacramento River
457,ADM,ADIN MOUNTAIN,PIT RIVER,MODOC,-120.792,41.237,"6,200",Natural Resources Conservation Service,Sacramento River
458,ADN,ADIN RS,PIT RIVER,MODOC,-120.944,41.194,"4,195",US Forest Service,Sacramento River
459,ADR,AUBURN DAM RIDGE,AMERICAN RIVER,PLACER,-121.045,38.882,"1,200",US Bureau of Reclamation,Sacramento River
460,ADS,ALDER SPRINGS NEAR ELK CREEK,STONY CREEK,GLENN,-122.725,39.65,"4,500",US Forest Service,Sacramento River
461,AFD,AMERICAN R BELOW FOLSOM DAM,AMERICAN RIVER,SACRAMENTO,-121.1667,38.6883,220,US Geological Survey,Sacramento River
462,AFO,AMERICAN RIVER AT FAIR OAKS,AMERICAN RIVER,SACRAMENTO,-121.22773,38.63546,72,US Geological Survey,Sacramento River
463,AL1,ABBOTT LAKE 1 WEST LEVEE WELL,FEATHER RIVER,SUTTER,-121.61121,39.018808,48,CA Dept of Water Resources/Operations and Maintenance,Sacramento River
464,AL2,ABBOTT LAKE 2 WEST LEVEE WELL,FEATHER RIVER,SUTTER,-121.611985,39.019752,48,CA Dept of Water Resources/Operations and Maintenance,Sacramento River
465,AL3,ABBOTT LAKE 3 WEST LEVEE WELL,FEATHER RIVER,SUTTER,-121.612375,39.020413,48,CA Dept of Water Resources/Operations and Maintenance,Sacramento River
466,ALM,LAKE ALMANOR,FEATHER RIVER,PLUMAS,-121.173,40.218,"4,600",Pacific Gas & Electric,Sacramento River
467,ALP,ALPHA (SMUD),AMERICAN RIVER,EL DORADO,-120.215652,38.804192,"7,600",Sacramento Municipal Utility District,Sacramento River
468,ALS,ALDER SPRINGS (USACE),STONY CREEK,GLENN,-122.725,39.65,"4,500",US Army Corps of Engineers,Sacramento River
469,ALT,ALTURAS RS,PIT RIVER,MODOC,-120.55,41.5,"4,400",US Forest Service,Sacramento River
470,ALY,ALLEGHANY,YUBA RIVER,SIERRA,-120.874275,39.470215,"4,957",CA Dept of Water Resources/Operations and Maintenance,Sacramento River
471,AMC,ARCADE CREEK AT WINDING WAY,AMERICAN RIVER,SACRAMENTO,-121.347,38.645,70,Sacramento County,Sacramento River
472,AMF,AMERICAN R AT FOLSOM,AMERICAN RIVER,SACRAMENTO,-121.183,38.683,0,CA Dept of Water Resources/DFM-Hydro-Water Supply Fcasting,Sacramento River
473,AMK,AMERICAN SF NR KYBURZ,AMERICAN RIVER,EL DORADO,-120.325,38.764,"3,840",US Geological Survey,Sacramento River
474,AND,SACRAMENTO RIVER AT ANDERSON,SACRAMENTO RIVER,SHASTA,-122.29536,40.471333,397,CA Dept of Water Resources/North Region Office,Sacramento River
475,ANH,SAN JOAQUIN RIVER AT ANTIOCH,SAN JOAQUIN RIVER,CONTRA COSTA,-121.802963,38.01783,10,CA Dept of Water Resources/Div of Environmental Services,Sacramento River
476,ANR,ANTELOPE RIDGE,FEATHER RIVER,PLUMAS,-120.542,40.155,"5,650",CA Dept of Water Resources/Beckwourth,Sacramento River
477,ANT,ANTELOPE LAKE,FEATHER RIVER,PLUMAS,-120.607,40.18,"4,960",CA Dept of Water Resources/O&M Oroville Field Division,Sacramento River
478,APH,ALPHA,AMERICAN RIVER,EL DORADO,-120.215645,38.804138,"7,600",CA Dept of Water Resources,Sacramento River
479,APS,AMERICAN RIVER PUMP STATION,AMERICAN RIVER,SACRAMENTO,-121.1,38.9,480,Placer County Water Agency,Sacramento River
480,ARD,ARCADE CREEK AT SUNRISE BLVD,AMERICAN RIVER,SACRAMENTO,-121.271,38.684,22,Sacramento Dept of Public Works,Sacramento River
481,ARW,ARDEN WAY,AMERICAN RIVER,SACRAMENTO,-121.413,38.596,35,Sacramento County,Sacramento River
482,ASA,AL SMITH CANAL,BATTLE CREEK,SHASTA,-121.855337,40.483924,"3,507",Pacific Gas & Electric,Sacramento River
483,ASC,ASH CREEK (USFS),MC CLOUD RIVER,SISKIYOU,-121.979446,41.276943,"3,200",US Forest Service,Sacramento River
484,ASH,ASH CREEK,MC CLOUD RIVER,SISKIYOU,-122.05,41.4,"5,000",McCloud Ranger District,Sacramento River
485,ATC,ANTELOPE CREEK NEAR RED BLUFF,SACRAMENTO RIVER,TEHAMA,-122.118889,40.202778,363,CA Dept of Water Resources/North Region Office,Sacramento River
486,ATP,ANTHONY PEAK,STONY CREEK,TEHAMA,-122.95,39.842,"6,200",Covelo Ranger District,Sacramento River
487,ATR,ANTELOPE R TAILRACE,FEATHER RIVER,PLUMAS,-120.6085,40.1797,"4,912",CA Dept of Water Resources/Operations and Maintenance,Sacramento River
488,AUB,AUBURN,AMERICAN RIVER,PLACER,-121.083,38.917,"1,292",National Weather Service,Sacramento River
489,AWB,AMERICAN RIVER BELOW WATT AVE BRIDGE,AMERICAN RIVER,SACRAMENTO,-121.387,38.567,50,US Geological Survey,Sacramento River
490,AWP,AMERICAN RIVER AT WILLIAM B POND PARK,AMERICAN RIVER,SACRAMENTO,-121.332,38.591,45,US Geological Survey,Sacramento River
491,B02,19N2E07K03M HARRIS RD NR RICHVALE,BUTTE CREEK,BUTTE,-121.787979,39.511768,93,CA Dept of Water Resources/North Region Office,Sacramento River
492,B03,19N2E07K02M HARRIS RD NR RICHVALE,BUTTE CREEK,BUTTE,-121.787979,39.511768,93,CA Dept of Water Resources/North Region Office,Sacramento River
493,B07,21N1E13L04M CHICO UNIV FARM,BUTTE CREEK,BUTTE,-121.814422,39.673446,151,CA Dept of Water Resources/North Region Office,Sacramento River
494,B08,21N1E13L03M CHICO UNIV FARM,BUTTE CREEK,BUTTE,-121.814422,39.673446,151,CA Dept of Water Resources/North Region Office,Sacramento River
495,B09,21N1E13L02M CHICO UNIV FARM,BUTTE CREEK,BUTTE,-121.814422,39.673446,151,CA Dept of Water Resources/North Region Office,Sacramento River
496,B10,18N04E19D001M,FEATHER RIVER,BUTTE,-121.57362,39.40512,125,CA Dept of Water Resources/North Region Office,Sacramento River
497,B11,18N04E19D002M,FEATHER RIVER,BUTTE,-121.57362,39.40512,125,CA Dept of Water Resources/North Region Office,Sacramento River
498,B12,18N04E19D003M,FEATHER RIVER,BUTTE,-121.57362,39.40512,125,CA Dept of Water Resources/North Region Office,Sacramento River
499,B14,BUTTE CREEK CANAL NEAR INTAKE,BUTTE CREEK,BUTTE,-121.58811,39.981,"2,860",Pacific Gas & Electric,Sacramento River
500,B24,MIOCENE CANAL NEAR HEAD,FEATHER RIVER,BUTTE,-121.57077,39.81043,"1,528",Pacific Gas & Electric,Sacramento River
501,BAC,BACON ISLAND AT OLD RIVER,DELTA,SAN JOAQUIN,-121.572174,37.969345,0,CA Dept of Water Resources/Operations and Maintenance,Sacramento River
502,BAN,BEAR CANYON CK AT ANDERSON SPRINGS RD,PUTAH CREEK,LAKE,-122.68861,38.77528,"1,330",US Geological Survey,Sacramento River
503,BAS,SOUTH FORK BATTLE CREEK NEAR MANTON,SACRAMENTO RIVER,TEHAMA,-121.980675,40.405804,997,CA Dept of Water Resources/North Region Office,Sacramento River
504,BAT,BATTLE CREEK,SACRAMENTO RIVER,TEHAMA,-122.146385,40.398209,200,USGS/DWR,Sacramento River
505,BBD,BUTTE CREEK NEAR DE SABLA,BUTTE CREEK,BUTTE,-121.625313,39.900196,"2,000",CA Dept of Water Resources/North Region Office,Sacramento River
506,BBP,BLACK BUTTE POOL,SACRAMENTO RIVER,TEHAMA,-122.3367,39.8139,518,US Army Corps of Engineers,Sacramento River
507,BBQ,STONEY CK BLW BLACK BUTTE DAM,SACRAMENTO RIVER,TEHAMA,-122.3239,39.8186,366,US Army Corps of Engineers,Sacramento River
508,BBW,BW-12 IMPORT TO BUTTE CREEK,BUTTE CREEK,BUTTE,-121.610329,39.885731,"2,882",CA Dept of Water Resources/North Region Office,Sacramento River
509,BCD,BUTTE CREEK NR DURHAM,BUTTE CREEK,BUTTE,-121.777481,39.678013,190,CA Dept of Water Resources/North Region Office,Sacramento River
510,BCK,BUTTE CREEK NR CHICO,BUTTE CREEK,BUTTE,-121.708862,39.725994,300,US Geological Survey,Sacramento River
511,BCL,BUCKS LAKE STORAGE,FEATHER RIVER,PLUMAS,-121.202,39.897,"5,168",Pacific Gas & Electric,Sacramento River
512,BCM,BRUSH CREEK (DWR-2),FEATHER RIVER,BUTTE,-121.34,39.694,"3,560",CA Dept of Water Resources/DFM-Hydro-Water Supply Fcasting,Sacramento River
513,BCP,BROWNS CAMP,FEATHER RIVER,PLUMAS,-121.25763,39.89791,"5,543","Pacific Gas and Electric Company, Rogers Flat",Sacramento River
514,BCX,BEAR RIVER CANAL INTAKE NR COLFAX,BEAR RIVER,PLACER,-120.95331,39.132778,"1,950",Pacific Gas & Electric,Sacramento River
515,BDB,NEW BULLARDS BAR DAM,YUBA RIVER,YUBA,-121.14377,39.396359,"2,080",Center for Western Weather and Water Extremes,Sacramento River
516,BDH,BUTTE CK NR DURHAM BLW GORRILL DAM,BUTTE CREEK,BUTTE,-121.785075,39.602169,133,CA Dept of Water Resources/North Region Office,Sacramento River
517,BDL,BELDON LANDING,SACRAMENTO RIVER,SOLANO,-121.9708,38.1869,0,CA Dept of Water Resources/Div of Environmental Services,Sacramento River
518,BDR,BLUE DOOR,PIT RIVER,LASSEN,-120.336,41.056,"5,900",US Bureau of Land Management,Sacramento River
519,BDY,BRANDY CREEK,SACTO VLY NE,SHASTA,-122.567,40.617,"1,300",US Bureau of Reclamation,Sacramento River
520,BER,BERRYESSA,PUTAH CREEK,NAPA,-122.104,38.513,456,US Bureau of Reclamation,Sacramento River
521,BET,BETHEL ISLAND,DELTA,CONTRA COSTA,-121.632187,38.041092,9,CA Dept of Water Resources/North Central Region Office,Sacramento River
522,BEV,SOUTH CANAL FROM BEAR RIVER,BEAR RIVER,PLACER,-120.953,39.133,"1,980",Pacific Gas & Electric,Sacramento River
523,BGR,BANGOR,YUBA RIVER,BUTTE,-121.386246,39.38073,800,CA Dept of Forestry and Fire Protection,Sacramento River
524,BHC,BRUSH CREEK (SMUD),AMERICAN RIVER,EL DORADO,-120.62,38.805,"2,923",Sacramento Municipal Utility District,Sacramento River
525,BHS,BIG HILL MET STATION,AMERICAN RIVER,EL DORADO,-120.407501,38.841667,"6,135",Sacramento Municipal Utility District,Sacramento River
526,BIC,BIG CHICO CREEK NEAR CHICO,SACRAMENTO RIVER,BUTTE,-121.778603,39.768417,274,CA Dept of Water Resources/North Region Office,Sacramento River
527,BIL,BUCK ISLAND LAKE,AMERICAN RIVER,EL DORADO,-120.25,39.001,"6,400",Sacramento Municipal Utility District,Sacramento River
528,BIT,LAKE BRITTON,PIT RIVER,SHASTA,-121.676,41.022,"2,744",Pacific Gas & Electric,Sacramento River
529,BJP,BYRON JACKSON PUMPS,SACRAMENTO RIVER,SUTTER,-121.753,38.87,35,Sutter County,Sacramento River
530,BKB,BACKBONE RAWS,TRINITY RIVER,TRINITY,-123.1422,40.8892,"4,700",National Weather Service,Sacramento River
531,BKL,BUCKS LAKE,FEATHER RIVER,PLUMAS,-121.25135,39.85292,"5,873",CA Dept of Water Resources/Operations and Maintenance,Sacramento River
532,BLA,BLACKS MOUNTAIN,PIT RIVER,LASSEN,-121.199783,40.76984,"7,050",CA Dept of Water Resources/DFM-Hydro-SMN,Sacramento River
533,BLB,BLACK BUTTE,STONY CREEK,TEHAMA,-122.329,39.808,426,US Army Corps of Engineers,Sacramento River
534,BLC,BLUE CANYON,AMERICAN RIVER,PLACER,-120.708694,39.280098,"5,280",US Bureau of Reclamation,Sacramento River
535,BLP,BLIND POINT,DELTA,CONTRA COSTA,-121.71904,38.032452,0,CA Dept of Water Resources/North Central Region Office,Sacramento River
536,BLU,BLUE LAKE RANCH,PIT RIVER,LASSEN,-120.25,41.15,"6,800",Warner Mountain Ranger District,Sacramento River
537,BLW,BLACK BUTTE WEATHER,STONY CREEK,TEHAMA,-122.3292,39.8083,425,US Army Corps of Engineers,Sacramento River
538,BMN,BLACKS MOUNTAIN,PIT RIVER,LASSEN,-121.195,40.762,"6,700",Hat Creek Ranger District,Sacramento River
539,BMT,BALD MOUNTAIN (USFS),RUBICON RIVER,EL DORADO,-120.683,38.9,"4,680",US Forest Service,Sacramento River
540,BND,SACRAMENTO RIVER AT BEND BRIDGE,SACRAMENTO RIVER,TEHAMA,-122.186661,40.288486,286,US Geological Survey/US Bureau of Reclamation,Sacramento River
541,BNF,NORTH FORK BATTLE CREEK NEAR MANTON,SACRAMENTO RIVER,TEHAMA,-121.986946,40.424332,998,CA Dept of Water Resources/North Region Office,Sacramento River
542,BNG,BANGOR CANAL,FEATHER RIVER,BUTTE,-121.454,39.504,815,South Feather Water and Power Agency,Sacramento River
543,BNS,BURNEY SPRINGS,PIT RIVER,SHASTA,-121.617,40.78,"4,700",Hat Creek Ranger District,Sacramento River
544,BOL,BOWMAN LAKE,YUBA RIVER,NEVADA,-120.654823,39.447693,"5,390",CA Dept of Water Resources/DFM-Hydro-SMN,Sacramento River
545,BOM,BOWMAN LAKE,YUBA RIVER,NEVADA,-120.6,39.458,"5,650",Nevada Irrigation District,Sacramento River
546,BOW,BOWMAN,YUBA RIVER,NEVADA,-120.65,39.45,"5,385",Nevada Irrigation District,Sacramento River
547,BPB,BURNEY CK AT PARK AVE AT BURNEY STATION,PIT RIVER,SHASTA,-121.671,40.876014,"3,158",CA Dept of Water Resources/North Region Office,Sacramento River
548,BPD,PARROT DIV FROM BUTTE CREEK,BUTTE CREEK,BUTTE,-121.754189,39.708904,269,CA Dept of Water Resources/North Region Office,Sacramento River
549,BPG,BEAR RIVER AT PLEASANT GROVE RD,BEAR RIVER,SUTTER,-121.487976,38.984097,75,CA Dept of Water Resources/North Region Office,Sacramento River
550,BRE,BEAR R AT ROLLINS RESERVOIR,BEAR RIVER,PLACER,-120.953,39.133,"1,945","Pacific Gas and Electric Company, Auburn",Sacramento River
551,BRK,BEAR CK AB HOLSTEN CYN NR RUMSEY,CACHE CREEK,COLUSA,-122.342751,38.957554,920,US Geological Survey,Sacramento River
552,BRS,BRUSH CREEK (DWR),FEATHER RIVER,BUTTE,-121.339,39.692,"3,560",CA Dept of Water Resources/Operations and Maintenance,Sacramento River
553,BRW,BEAR RIVER NEAR WHEATLAND,BEAR RIVER,PLACER,-121.40731,38.999928,72,USGS/DWR,Sacramento River
554,BSF,SACRAMENTO RIVER AT BALLS FERRY BRIDGE,SACRAMENTO RIVER,TEHAMA,-122.193,40.417,360,US Bureau of Reclamation,Sacramento River
555,BSL,BUTTE SLOUGH NR MERIDIAN,SACRAMENTO RIVER,SUTTER,-121.901649,39.171474,13,CA Dept of Water Resources/North Region Office,Sacramento River
556,BSO,BUTTE SLOUGH AT OUTFALL GATES,SACRAMENTO RIVER,SUTTER,-121.936569,39.19516,50,CA Dept of Water Resources/North Region Office,Sacramento River
557,BSS,BROOKS,CACHE CREEK,YOLO,-122.144722,38.738335,360,CA Dept of Forestry and Fire Protection,Sacramento River
558,BTB,SF BATTLE CK BLW DIV TO COLEMAN CANAL,SACRAMENTO RIVER,TEHAMA,-121.969078,40.40251,"1,160",Pacific Gas & Electric,Sacramento River
559,BTC,SACRAMENTO RIVER AT BUTTE CITY,SACRAMENTO RIVER,GLENN,-121.994164,39.45784,99,CA Dept of Water Resources/North Region Office,Sacramento River
560,BTG,BUTTE CK AT COLUSA/GRIDLEY RD,BUTTE CREEK,BUTTE,-121.892662,39.361801,60,CA Dept of Water Resources/North Region Office,Sacramento River
561,BTI,SF BATTLE CR BL DIV TO INSKIP CN,SACRAMENTO RIVER,TEHAMA,-121.8825,40.395279,"1,385",Pacific Gas & Electric,Sacramento River
562,BTP,BEAR TRAP,AMERICAN RIVER,PLACER,-120.5769,39.0945,"5,217",UC Merced,Sacramento River
563,BTR,BATTLE RIDGE,SACTO VLY NE,TEHAMA,-121.75,40.333,"3,400",US Bureau of Reclamation,Sacramento River
564,BTV,BUTT VALLEY,FEATHER RIVER,PLUMAS,-121.174174,40.14802,"4,144",Pacific Gas & Electric,Sacramento River
565,BTW,NF BATTLE CK BLW DIV TO WILDCAT CANAL,SACRAMENTO RIVER,TEHAMA,-121.961233,40.4204,"1,200",Pacific Gas & Electric,Sacramento River
566,BTX,NF BATTLE C BL DIV TO XCOUNTRY CN,SACRAMENTO RIVER,TEHAMA,-121.8606,40.452221,"2,068",Pacific Gas & Electric,Sacramento River
567,BUD,BULLARDS BAR,YUBA RIVER,YUBA,-121.143898,39.396301,"2,100",Yuba Water Agency,Sacramento River
568,BUL,NEW BULLARDS BAR,YUBA RIVER,YUBA,-121.14,39.393,"1,965",Yuba Water Agency,Sacramento River
569,BUP,BUCKS CREEK POWERHOUSE,FEATHER RIVER,PLUMAS,-121.333,39.917,"1,760",Pacific Gas & Electric,Sacramento River
570,BUX,NEW BULLARDS BAR AUX,YUBA RIVER,YUBA,-121.14,39.393,"1,965",Yuba Water Agency,Sacramento River
571,BVH,BUTT VALLEY POWERHOUSE,FEATHER RIVER,PLUMAS,-121.19,40.176,"4,142",Pacific Gas & Electric,Sacramento River
572,BVS,BROWNS VALLEY SCHOOL,YUBA RIVER,YUBA,-121.40621,39.23586,233,Center for Western Weather and Water Extremes,Sacramento River
573,BWN,BOWMAN LAKE,YUBA RIVER,NEVADA,-120.652,39.45,"5,566",Nevada County,Sacramento River
574,BWR,BREWER CREEK,MC CLOUD RIVER,SISKIYOU,-122.1,41.435,"6,250",McCloud Ranger District,Sacramento River
575,BWS,LAKE SPAULDING S YUBA SYSTEM,YUBA RIVER,NEVADA,-120.658,39.441,"5,390",Pacific Gas & Electric,Sacramento River
576,BYL,BRYTE LAB,SACRAMENTO RIVER,YOLO,-121.539543,38.600098,25,CA Dept of Water Resources/North Central Region Office,Sacramento River
577,BYT,BRYTE TEST  SITE,SACRAMENTO RIVER,YOLO,-121.540356,38.5992,25,CA Dept of Water Resources/DFM-Hydro-SMN,Sacramento River
578,C05,SACRAMENTO RIVER AT CHANNEL MARKER 5,SACRAMENTO RIVER,SOLANO,-121.835808,38.065781,0,US Geological Survey,Sacramento River
579,C06,14N01E35P001M,SACTO VLY WEST,COLUSA,-121.82904,39.01244,49,CA Dept of Water Resources/North Region Office,Sacramento River
580,C07,14N01E35P002M,SACTO VLY WEST,COLUSA,-121.82904,39.01244,48,CA Dept of Water Resources/North Region Office,Sacramento River
581,C08,14N01E35P003M,SACTO VLY WEST,COLUSA,-121.82904,39.01244,48,CA Dept of Water Resources/North Region Office,Sacramento River
582,C09,14N01E35P004M,SACTO VLY WEST,COLUSA,-121.82904,39.01244,48,CA Dept of Water Resources/North Region Office,Sacramento River
583,C10,SACRAMENTO RIVER AT CHANNEL MARKER 10,SACRAMENTO RIVER,SOLANO,-121.799889,38.05983,0,US Geological Survey,Sacramento River
584,C11,17N01W27A001M,SACRAMENTO RIVER,COLUSA,-121.95299,39.30099,69,CA Dept of Water Resources/North Region Office,Sacramento River
585,C14,17N01W27A002M,SACRAMENTO RIVER,COLUSA,-121.95299,39.0099,69,CA Dept of Water Resources/North Region Office,Sacramento River
586,C15,17N01W27A003M,SACRAMENTO RIVER,COLUSA,-121.95299,39.30099,68,CA Dept of Water Resources/North Region Office,Sacramento River
587,C1P,CARIBOU 1 POWERHOUSE,FEATHER RIVER,PLUMAS,-121.149261,40.085968,"3,000",Pacific Gas & Electric,Sacramento River
588,C2P,CARIBOU 2 POWERHOUSE,FEATHER RIVER,PLUMAS,-121.149261,40.085968,"3,000",Pacific Gas & Electric,Sacramento River
589,CAM,CAMPTONVILLE (DWR),YUBA RIVER,YUBA,-121.049,39.451,"2,755",CA Dept of Water Resources/Operations and Maintenance,Sacramento River
590,CAP,CAPLES LAKE,AMERICAN RIVER,ALPINE,-120.04158,38.710793,"8,000",US Bureau of Reclamation,Sacramento River
591,CAR,CARPENTER RIDGE,BUTTE CREEK,BUTTE,-121.582,40.069,"4,812",CA Dept of Forestry and Fire Protection,Sacramento River
592,CBO,CARIBOU PH,FEATHER RIVER,PLUMAS,-121.15,40.085,"2,986",CA Dept Water Resources and Pacific Gas and Electric,Sacramento River
593,CBR,AMERICAN RIVER AT CHILI BAR,AMERICAN RIVER,EL DORADO,-120.816,38.772,931,Sacramento Municipal Utility District,Sacramento River
594,CC5,CASTLE CREEK 5,YUBA RIVER,NEVADA,-120.35392,39.34947,"7,400",Central Sierra Snow Lab,Sacramento River
595,CCE,COW CREEK (USBR),SACTO VLY NE,SHASTA,-121.853,40.603,"2,840",US Bureau of Reclamation,Sacramento River
596,CCL,CACHE CK NR LOWER LAKE,CACHE CREEK,LAKE,-122.56611,38.92417,"1,320",US Geological Survey,Sacramento River
597,CCN,CAMINO CONDUIT,AMERICAN RIVER,EL DORADO,-120.563,38.714,"9,999",US Bureau of Reclamation,Sacramento River
598,CCO,CISCO,YUBA RIVER,PLACER,-120.543,39.303,"5,900","Pacific Gas and Electric Company, Auburn",Sacramento River
599,CCR,SACRAMENTO RIVER ABOVE CLEAR CK,SACRAMENTO RIVER,SHASTA,-122.356,40.538,450,US Bureau of Reclamation,Sacramento River
600,CCY,CACHE CREEK AT YOLO,CACHE CREEK,YOLO,-121.807152,38.726635,86,US Geological Survey,Sacramento River
601,CDP,CEDAR PASS,PIT RIVER,MODOC,-120.303,41.583,"7,100",Natural Resources Conservation Service,Sacramento River
602,CDR,COLUSA DRAIN NR HWY 20,SACRAMENTO RIVER,COLUSA,-122.060516,39.195511,60,CA Dept of Water Resources/North Region Office,Sacramento River
603,CES,CHICO UNIV FARM,SACTO VLY NE,BUTTE,-121.817,39.7,185,National Weather Service,Sacramento River
604,CEY,CLEARLAKE CITY,CACHE CREEK,LAKE,-122.6492,38.9617,"1,340",US Geological Survey,Sacramento River
605,CFW,BEAR RIVER AT CAMP FAR WEST DAM,BEAR RIVER,YUBA,-121.315941,39.049858,260,CA Dept of Water Resources/DFM-Hydro-SMN,Sacramento River
606,CGT,COLGATE PH,YUBA RIVER,YUBA,-121.19,39.3308,600,CA Dept of Water Resources/DFM-Hydro-SMN,Sacramento River
607,CHC,CHEROKEE CANAL NR RICHVALE,COTTONWOOD CREEK,BUTTE,-121.744736,39.464703,106,CA Dept of Water Resources/North Region Office,Sacramento River
608,CHF,CHESTER FLAT,FEATHER RIVER,PLUMAS,-121.25,40.283,"4,600",Eagle Lake Ranger District,Sacramento River
609,CHG,CHICAGO,AMERICAN RIVER,SACRAMENTO,-121.254,38.652,210,Sacramento County,Sacramento River
610,CHK,CHALK BLUFF,YUBA RIVER,NEVADA,-120.81,39.305,"4,850",Nevada Irrigation District,Sacramento River
611,CHS,CHESTER,FEATHER RIVER,PLUMAS,-121.233,40.283,"4,525",US Forest Service,Sacramento River
612,CHU,CHURCH MEADOWS,FEATHER RIVER,SIERRA,-120.622767,39.681233,"6,700",CA Dept of Water Resources/Beckwourth,Sacramento River
613,CKL,CLEAR LAKE AT LAKEPORT,CACHE CREEK,LAKE,-122.912,39.039,"1,318",US Geological Survey,Sacramento River
614,CLA,CLEAR LK - CACHE CREEK,CACHE CREEK,LAKE,-122.642,38.957,"1,336",Yolo County Flood Control and Water Consv Dist,Sacramento River
615,CLF,COLFAX,AMERICAN RIVER,PLACER,-120.951,39.122,"2,400",National Weather Service,Sacramento River
616,CLL,COLLINSVILLE,DELTA,SOLANO,-121.850123,38.073981,0,US Bureau of Reclamation,Sacramento River
617,CLR,CLEAR CREEK,SACTO VLY NE,SHASTA,-122.667,40.639,"3,300",US Bureau of Reclamation,Sacramento River
618,CLS,COLLINS LAKE,YUBA RIVER,YUBA,-121.3271,39.3376,"1,270",Brown's Valley Irrigation District,Sacramento River
619,CLW,SACTO R AT COLUSA WEIR (CREST 60.9'),SACRAMENTO RIVER,COLUSA,-121.994759,39.23682,70,CA Dept of Water Resources/North Region Office,Sacramento River
620,CMC,CHAPMAN CREEK,YUBA RIVER,SIERRA,-120.533,39.633,"5,850",Yuba River Ranger District,Sacramento River
621,CMH,COLEMAN POWERHOUSE,BATTLE CREEK,SHASTA,-122.121667,40.404722,482,Pacific Gas & Electric,Sacramento River
622,CMI,CAMINO,AMERICAN RIVER,EL DORADO,-120.533,38.833,"3,000",Sacramento Municipal Utility District,Sacramento River
623,CNH,BATTLE CK DVRSN AT COLEMAN FISH HATCHERY,BATTLE CREEK,TEHAMA,-122.14027,40.40036,446,CA Dept of Water Resources/North Central Region Office,Sacramento River
624,CNR,CHEROKEE CANAL ABV NELSON RD,COTTONWOOD CREEK,BUTTE,-121.70236,39.597539,170,CA Dept of Water Resources/North Region Office,Sacramento River
625,CNT,CONTRA COSTA,DELTA,CONTRA COSTA,-121.702809,37.99495,10,US Bureau of Reclamation,Sacramento River
626,CNW,CONAWAY (GRND WTR),SACRAMENTO RIVER,YOLO,-121.6675,38.64642,30,CA Dept of Water Resources/North Central Region Office,Sacramento River
627,CNY,CANYON DAM,FEATHER RIVER,PLUMAS,-121.083,40.167,"4,560",Pacific Gas & Electric,Sacramento River
628,COL,SACRAMENTO RIVER AT COLUSA,SACRAMENTO RIVER,COLUSA,-122.000252,39.214058,50,USGS/DWR,Sacramento River
629,COW,COW CREEK NEAR MILLVILLE,SACRAMENTO RIVER,SHASTA,-122.233055,40.504875,385,USGS/DWR,Sacramento River
630,CPH,COLGATE POWER HOUSE,YUBA RIVER,YUBA,-121.188,39.331,180,Yuba County,Sacramento River
631,CPL,CAPLES LAKE (EID),AMERICAN RIVER,ALPINE,-120.048,38.707,"7,800",El Dorado Irrigation District,Sacramento River
632,CPR,CAPERTON RESERVOIR,AMERICAN RIVER,SACRAMENTO,-121.220162,38.861859,620,City of Roseville,Sacramento River
633,CPS,CAMP SECO RAWS,CALAVERAS RIVER,CALAVERAS,-120.866386,38.22361,399,US Bureau of Land Management,Sacramento River
634,CPT,CAPLES (TWIN) LAKE,AMERICAN RIVER,ALPINE,-120.033,38.7,"8,000",National Weather Service,Sacramento River
635,CRB,CIRBY CREEK - TINA WAY,AMERICAN RIVER,PLACER,-121.278,38.732,141,City of Roseville,Sacramento River
636,CRG,CORNING AIRPORT,SACRAMENTO RIVER,TEHAMA,-122.17,39.939,294,CA Dept of Forestry and Fire Protection,Sacramento River
637,CRP,CRESTA PARK,AMERICAN RIVER,SACRAMENTO,-121.368,38.593,70,Sacramento County,Sacramento River
638,CSD,CASCADE DITCH,YUBA RIVER,NEVADA,-121.06,39.01,"9,999",Nevada Irrigation District,Sacramento River
639,CSE,COLLINSVILLE ON SACRAMENTO RIVER,DELTA,SOLANO,-121.8501,38.074,0,CA Dept of Water Resources/Div of Environmental Services,Sacramento River
640,CSH,CASHMAN,FEATHER RIVER,PLUMAS,-120.916,40.0019,"4,520",National Park Service,Sacramento River
641,CSL,CENT SIERRA SNOW LAB,YUBA RIVER,NEVADA,-120.367,39.325,"6,900",Natural Resources Conservation Service,Sacramento River
642,CST,COHASSET,SACRAMENTO RIVER,BUTTE,-121.770554,39.875278,"1,600",CA Dept of Forestry and Fire Protection,Sacramento River
643,CSU,CALIFORNIA STATE UNIV AT SACRAMENTO,AMERICAN RIVER,SACRAMENTO,-121.416,38.555,25,National Weather Service,Sacramento River
644,CT0,COTTONWOOD NODE 10,AMERICAN RIVER,PLACER,-120.382584,39.108733,"6,200",UC Davis,Sacramento River
645,CT1,COTTONWOOD NODE 1,AMERICAN RIVER,PLACER,-120.383328,39.107954,"6,200",UC Davis,Sacramento River
646,CT2,COTTONWOOD NODE 2,AMERICAN RIVER,PLACER,-120.383646,39.10804,"6,200",UC Davis,Sacramento River
647,CT3,COTTONWOOD NODE 3,AMERICAN RIVER,PLACER,-120.38309,39.107306,"6,200",UC Davis,Sacramento River
648,CT4,COTTONWOOD NODE 4,AMERICAN RIVER,PLACER,-120.382474,39.107505,"6,200",UC Davis,Sacramento River
649,CT5,COTTONWOOD NODE 5,AMERICAN RIVER,PLACER,-120.382076,39.108323,"6,200",UC Davis,Sacramento River
650,CT6,COTTONWOOD NODE 6,AMERICAN RIVER,PLACER,-120.38199,39.1076,"6,200",UC Davis,Sacramento River
651,CT7,COTTONWOOD NODE 7,AMERICAN RIVER,PLACER,-120.382448,39.107901,"6,200",UC Davis,Sacramento River
652,CT8,COTTONWOOD NODE 8,AMERICAN RIVER,PLACER,-120.381627,39.108284,"6,200",UC Davis,Sacramento River
653,CT9,COTTONWOOD NODE 9,AMERICAN RIVER,PLACER,-120.383295,39.108472,"6,200",UC Davis,Sacramento River
654,CTN,COTTONWOOD CREEK NEAR BEEGUM,COTTONWOOD CREEK,TEHAMA,-122.881,40.317,"3,400",US Bureau of Reclamation,Sacramento River
655,CWA,COTTONWOOD CREEK AUXILIARY GAGE,COTTONWOOD CREEK,TEHAMA,-122.238609,40.387096,364,US Geological Survey,Sacramento River
656,CWC,COTTONWOOD CK BLW HWY 99,SACRAMENTO RIVER,BUTTE,-121.689166,39.526944,125,CA Dept of Water Resources/North Region Office,Sacramento River
657,CYG,CYGNUS-CORDELIA SLOUGH,DELTA,SOLANO,-122.0908,38.1527,0,CA Dept of Water Resources/Div of Environmental Services,Sacramento River
658,CYW,COUNTY LINE RAWS NR WILBUR SPRINGS,CACHE CREEK,COLUSA,-122.4119,39.0189,"2,085",US Bureau of Land Management,Sacramento River
659,DAR,DRAINAGE AT ARBOR ROAD,SAN JOAQUIN RIVER,SAN JOAQUIN,-121.419414,37.768959,20,CA Dept of Water Resources/North Central Region Office,Sacramento River
660,DAV,LAKE DAVIS (DWR),FEATHER RIVER,PLUMAS,-120.467,39.883,"5,768",CA Dept of Water Resources/O&M Oroville Field Division,Sacramento River
661,DCE,DRUM CANAL INTAKE NEAR EMIGRANT GAP,YUBA RIVER,PLACER,-120.652222,39.317501,"4,880",Pacific Gas & Electric,Sacramento River
662,DCH,DEER CREEK AT HWY 32,SACRAMENTO RIVER,TEHAMA,-121.451057,40.26469,50,CA Dept of Water Resources/North Central Region Office,Sacramento River
663,DCN,D S CANAL,YUBA RIVER,NEVADA,-120.96,39.26,"2,900",Nevada Irrigation District,Sacramento River
664,DCS,DEER CREEK NR SMARTVILLE,YUBA RIVER,NEVADA,-121.26857,39.224339,630,US Geological Survey,Sacramento River
665,DCV,DEER CREEK NR VINA,SACRAMENTO RIVER,TEHAMA,-121.948318,40.014046,479,US Geological Survey,Sacramento River
666,DCW,DRY CREEK NEAR WHEATLAND,BEAR RIVER,YUBA,-121.4361,39.0236,63,US Geological Survey,Sacramento River
667,DDW,DIDDY WELLS,SACTO VLY NE,SHASTA,-122.1,40.7,"1,300",US Bureau of Reclamation,Sacramento River
668,DES,DE SABLA (DWR),BUTTE CREEK,BUTTE,-121.61,39.872,"2,710",CA Dept of Water Resources/Operations and Maintenance,Sacramento River
669,DF1,DUTCH FLAT 1 POWERHOUSE,BEAR RIVER,PLACER,-120.8355,39.2169,"2,736",Pacific Gas & Electric,Sacramento River
670,DHC,DEAD HORSE CANYON,MC CLOUD RIVER,SISKIYOU,-121.775,41.208,"4,500",McCloud Ranger District,Sacramento River
671,DID,DCID DEER CK DIVERSION NR VINA,SACRAMENTO RIVER,TEHAMA,-121.95719,40.0095,470,CA Dept of Water Resources/North Region Office,Sacramento River
672,DLA,DOWNIEVILLE,YUBA RIVER,SIERRA,-120.8242,39.5634,"2,956",Center for Western Weather and Water Extremes,Sacramento River
673,DLC,DELTA CROSS CHANNEL BTW SAC R & SNODGRAS,SACRAMENTO RIVER,SACRAMENTO,-121.505,38.245,10,US Geological Survey,Sacramento River
674,DLT,SACRAMENTO RIVER AT DELTA,SACRAMENTO RIVER,SHASTA,-122.417236,40.939594,"1,075",US Geological Survey/US Bureau of Reclamation,Sacramento River
675,DMC,DMC HEADWORKS,DELTA,ALAMEDA,-121.590239,37.781567,200,US Bureau of Reclamation,Sacramento River
676,DMN,DIAMOND CROSSING,AMERICAN RIVER,PLACER,-120.283,39.112,"6,050",Placer County Water Agency,Sacramento River
677,DNM,DUNSMUIR TREATMENT PLANT,SACRAMENTO RIVER,SISKIYOU,-122.267,41.2,"2,170",National Weather Service,Sacramento River
678,DNS,DONNER SUMMIT,YUBA RIVER,PLACER,-120.338,39.31,"6,900","Pacific Gas and Electric Company, Auburn",Sacramento River
679,DNV,DOWNIEVILLE,YUBA RIVER,SIERRA,-120.8292,39.5586,"2,920",CA Dept of Water Resources/DFM-Hydro-SMN,Sacramento River
680,DOL,DOLLY CREEK,AMERICAN RIVER,PLACER,-120.36872,39.14881,"6,622",UC Merced,Sacramento River
681,DOY,DOYLE CROSSING,FEATHER RIVER,PLUMAS,-120.483,40.1192,"5,670",CA Dept of Water Resources/North Region Office,Sacramento River
682,DPH,DRUM POWER HOUSE,BEAR RIVER,PLACER,-120.767,39.264,"3,400",Pacific Gas & Electric,Sacramento River
683,DPK,DUNCAN PEAK,AMERICAN RIVER,PLACER,-120.5101,39.1546,"6,929",UC Merced,Sacramento River
684,DRC,DEER CK FOREBAY (PG&E),YUBA RIVER,NEVADA,-120.825,39.3,"4,455",Pacific Gas & Electric,Sacramento River
685,DRM,DRUM CANAL,YUBA RIVER,PLACER,-120.73,39.264,"4,750",Pacific Gas & Electric,Sacramento River
686,DRO,DELTA RUNOFF ONE DAY CALCULATION,DELTA,CONTRA COSTA,-121.642,38.042,6,CA Dept of Water Resources/Flood Management,Sacramento River
687,DSB,DE SABLA (PG&E),BUTTE CREEK,BUTTE,-121.617,39.867,"2,710",Pacific Gas & Electric,Sacramento River
688,DTO,DELTA OUTFLOW,DELTA,SOLANO,-122.025,38.059,0,CA Dept of Water Resources/Operations and Maintenance,Sacramento River
689,DUN,DUNCAN,AMERICAN RIVER,PLACER,-120.509,39.144,"7,100",US Forest Service,Sacramento River
690,DVD,DEER CREEK BELOW STANFORD VINA DAM,SACRAMENTO RIVER,TEHAMA,-122.034363,39.963615,335,CA Dept of Water Resources/North Region Office,Sacramento River
691,DVF,DUCK CK DIVERSION NR FARMINGTON,SAN JOAQUIN RIVER,SAN JOAQUIN,-120.93,37.945,146,US Army Corps of Engineers,Sacramento River
692,DVG,DEVILS GARDEN,PIT RIVER,MODOC,-120.668,41.522,"5,022",CA Dept of Forestry and Fire Protection,Sacramento River
693,DVR,DAVIS RANCH,COTTONWOOD CREEK,TEHAMA,-122.45,40.35,550,US Bureau of Reclamation,Sacramento River
694,DVS,DAVIS 2WSW,SACTO VLY WEST,SACRAMENTO,-121.767,38.533,60,National Weather Service,Sacramento River
695,DWS,SACRAMENTO DEEP WATER SHIPPING CHANNEL,SACRAMENTO RIVER,YOLO,-121.66667,38.25611,0,US Geological Survey,Sacramento River
696,DWV,DOWNIEVILLE,YUBA RIVER,SIERRA,-120.8333,39.5667,"2,915",National Weather Service,Sacramento River
697,EC1,EAGLE CANYON CANAL BELOW INTAKE,BATTLE CREEK,TEHAMA,-121.92,40.421,"1,591",Pacific Gas & Electric,Sacramento River
698,EC2,EAGLE CANYON CANAL ABOVE FOREBAY,BATTLE CREEK,TEHAMA,-121.942,40.408,"1,411",Pacific Gas & Electric,Sacramento River
699,ECD,EAST CONTRA COUNTY ID PP#1,DELTA,CONTRA COSTA,-121.625999,37.917863,22,CA Dept of Water Resources/North Central Region Office,Sacramento River
700,ECH,ECHO LAKE CONDUIT,AMERICAN RIVER,EL DORADO,-120.037,38.831,"7,420",Pacific Gas & Electric,Sacramento River
701,ECP,ELDER CREEK NEAR PASKENTA,SACRAMENTO RIVER,TEHAMA,-122.511948,40.023766,718,US Geological Survey,Sacramento River
702,ECS,ECHO SUMMIT,AMERICAN RIVER,EL DORADO,-120.03898,38.82852,"7,450",Placerville Ranger District,Sacramento River
703,EDN,STUMPY MEADOWS RESERVOIR(MARK EDSON DAM),AMERICAN RIVER,EL DORADO,-120.603,38.903,"4,272",Georgetown Divide Public Utility District,Sacramento River
704,EGN,LAGUNA CR - FLORIN NEAR EAGLES NEST ROAD,SACRAMENTO RIVER,SACRAMENTO,-121.260834,38.485279,100,Sacramento County,Sacramento River
705,EMM,EMMATON (USBR),DELTA,SACRAMENTO,-121.738924,38.084272,0,US Bureau of Reclamation,Sacramento River
706,ENB,ENGLEBRIGHT (YCWA),YUBA RIVER,NEVADA,-121.267,39.239,551,Yuba Water Agency,Sacramento River
707,ENG,ENGLEBRIGHT (USACE),YUBA RIVER,NEVADA,-121.267,39.239,551,US Army Corps of Engineers,Sacramento River
708,ENM,ENGLISH MOUNTAIN,YUBA RIVER,NEVADA,-120.525,39.436,"7,100",Nevada Irrigation District,Sacramento River
709,ENW,ENGLEBRIGHT WEATHER,YUBA RIVER,NEVADA,-121.2653,39.2372,850,US Army Corps of Engineers,Sacramento River
710,EPK,EAST PARK RESERVOIR,STONY CREEK,COLUSA,-122.517,39.367,"1,205",US Bureau of Reclamation,Sacramento River
711,ERB,EUREKA BOWL,FEATHER RIVER,PLUMAS,-120.71965,39.756583,"6,800",CA Dept of Water Resources/Beckwourth,Sacramento River
712,EUR,EUREKA LAKE,FEATHER RIVER,PLUMAS,-120.714717,39.76165,"6,200",CA Dept of Water Resources/Beckwourth,Sacramento River
713,F20,BUCKS CREEK POWERHOUSE,FEATHER RIVER,PLUMAS,-121.32776,39.910576,"1,784",Pacific Gas & Electric,Sacramento River
714,F22,GRIZZLY CR BL DIVERSION DAM,FEATHER RIVER,PLUMAS,-121.293053,39.891388,"4,320",Pacific Gas & Electric,Sacramento River
715,F45,HAMILTON BRANCH FLUME,FEATHER RIVER,PLUMAS,-121.072735,40.287984,"4,908",Pacific Gas & Electric,Sacramento River
716,F56,NF FEATHER R BL GRIZZLY CREEK,FEATHER RIVER,BUTTE,-121.391388,39.852501,"1,465",Pacific Gas & Electric,Sacramento River
717,F57,NF FEATHER R BL ROCK CREEK DIV DAM,FEATHER RIVER,PLUMAS,-121.275833,39.979721,"2,080",Pacific Gas & Electric,Sacramento River
718,F62,CRESTA POWERHOUSE,FEATHER RIVER,BUTTE,-121.409739,39.825926,"1,500",Pacific Gas & Electric,Sacramento River
719,F64,ROCK CREEK POWERHOUSE,FEATHER RIVER,PLUMAS,-121.345301,39.905147,"1,700",Pacific Gas & Electric,Sacramento River
720,F70,NF FEATHER R BELOW BELDEN DAM,FEATHER RIVER,PLUMAS,-121.163612,40.071388,"2,811",Pacific Gas & Electric,Sacramento River
721,F74,BELDEN POWERHOUSE,FEATHER RIVER,PLUMAS,-121.249404,40.007417,"2,200",Pacific Gas & Electric,Sacramento River
722,FBD,FORBESTOWN DITCH (OROV-WYAN CANAL),FEATHER RIVER,BUTTE,-121.193642,39.55217,"3,166",South Feather Water and Power Agency,Sacramento River
723,FBS,FORBESTOWN,FEATHER RIVER,BUTTE,-121.2661,39.517,"2,840",Pacific Gas & Electric,Sacramento River
724,FCL,FEATHER RIVER COLLEGE,FEATHER RIVER,PLUMAS,-120.969701,39.945873,"3,425",Center for Western Weather and Water Extremes,Sacramento River
725,FCV,FRENCHMAN COVE,FEATHER RIVER,PLUMAS,-120.265,39.897,"5,800",CA Dept of Water Resources/Beckwourth,Sacramento River
726,FDT,FRENCHMAN DAM TAILRACE,FEATHER RIVER,PLUMAS,-120.1893,39.8933,"5,478",CA Dept of Water Resources/Operations and Maintenance,Sacramento River
727,FEM,FEATHER RIVER MEADOW,FEATHER RIVER,LASSEN,-121.42496,40.35511,"5,522","Pacific Gas and Electric Company, Rogers Flat",Sacramento River
728,FEW,SACRAMENTO R AT FREMONT WEIR EAST END,SACRAMENTO RIVER,YOLO,-121.635623,38.765356,37,CA Dept of Water Resources/North Central Region Office,Sacramento River
729,FLD,FOLSOM DAM - FOLSOM POINT (DYKE 8),AMERICAN RIVER,SACRAMENTO,-121.129723,38.693054,350,National Weather Service,Sacramento River
730,FLO,FEATHER RIVER AT LIVE OAK,FEATHER RIVER,SUTTER,-121.636,39.248,65,Sutter County,Sacramento River
731,FLT,GOODYEAR SLOUGH OUTFALL @ NAVAL FLEET,DELTA,SOLANO,-122.102048,38.080379,0,CA Dept of Water Resources/Div of Environmental Services,Sacramento River
732,FMD,FRENCH MEADOWS,AMERICAN RIVER,PLACER,-120.468,39.112,"5,263",Placer County Water Agency,Sacramento River
733,FNF,FURNACE FLAT,YUBA RIVER,NEVADA,-120.503,39.355,"6,700","Pacific Gas and Electric Company, Auburn",Sacramento River
734,FNP,FINDLEY PEAK,YUBA RIVER,NEVADA,-120.572,39.47,"6,500",Nevada Irrigation District,Sacramento River
735,FOD,LAKE FORDYCE,YUBA RIVER,NEVADA,-120.5,39.36,"6,500","Pacific Gas and Electric Company, Auburn",Sacramento River
736,FOL,FOLSOM LAKE,AMERICAN RIVER,SACRAMENTO,-121.183,38.683,466,US Bureau of Reclamation,Sacramento River
737,FOR,FOUR TREES,FEATHER RIVER,PLUMAS,-121.32168,39.81278,"5,202",CA Dept of Water Resources/O&M Oroville Field Division,Sacramento River
738,FOW,FEATHER R OWA SO BOUNDARY NR GRIDLEY,FEATHER RIVER,BUTTE,-121.6194,39.4025,100,CA Dept of Water Resources/North Region Office,Sacramento River
739,FP3,FREDONYER PASS 3,FEATHER RIVER,LASSEN,-120.872,40.375,"5,850",Eagle Lake Ranger District,Sacramento River
740,FPD,FRESH POND,AMERICAN RIVER,EL DORADO,-120.536629,38.759818,"3,770",Sacramento Municipal Utility District,Sacramento River
741,FPT,SACRAMENTO RIVER AT FREEPORT,SACRAMENTO RIVER,SACRAMENTO,-121.5003,38.456112,0,US Geological Survey,Sacramento River
742,FRA,FEATHER RIVER AT MILE 61.6,FEATHER RIVER,BUTTE,-121.597,39.468,125,CA Dept of Water Resources/O&M Oroville Field Division,Sacramento River
743,FRD,FRENCHMAN DAM,FEATHER RIVER,PLUMAS,-120.183,39.883,"5,517",CA Dept of Water Resources/O&M Oroville Field Division,Sacramento River
744,FRE,SACRAMENTO R @ FREMONT WEIR(CREST 32.0'),SACRAMENTO RIVER,YOLO,-121.667274,38.759258,40,CA Dept of Water Resources/North Central Region Office,Sacramento River
745,FRH,FORESTHILL R S,AMERICAN RIVER,PLACER,-120.85,39.017,"3,015",US Forest Service,Sacramento River
746,FRL,FRENCH LAKE,YUBA RIVER,NEVADA,-120.544,39.44,"6,664",Nevada County,Sacramento River
747,FRN,FORNI RIDGE,AMERICAN RIVER,EL DORADO,-120.215919,38.80397,"7,600",US Bureau of Reclamation,Sacramento River
748,FRP,FARRAR PARK,DELTA,SAN JOAQUIN,-121.639129,38.011698,0,US Bureau of Reclamation,Sacramento River
749,FSB,FEATHER R AT BOYD'S LNDNG ABV STAR BEND,FEATHER RIVER,SUTTER,-121.610435,39.045498,50,CA Dept of Water Resources/North Central Region Office,Sacramento River
750,FSC,FOLSOM SOUTH CANAL,AMERICAN RIVER,SACRAMENTO,-121.183,38.65,132,US Bureau of Reclamation,Sacramento River
751,FSF,FOLSOM LAKE SAFCA WCD,AMERICAN RIVER,SACRAMENTO,-121.183,38.683,466,US Bureau of Reclamation,Sacramento River
752,FTA,FEATHER RIVER BELOW THERMALITO AFTERBAY,FEATHER RIVER,BUTTE,-121.639539,39.452924,125,CA Dept of Water Resources/North Central Region Office,Sacramento River
753,FTO,FEATHER RIVER AT OROVILLE,FEATHER RIVER,BUTTE,-121.547,39.522,149,CA Dept of Water Resources/DFM-Hydro-Water Supply Fcasting,Sacramento River
754,FTT,FEATHER DIVERSION FROM L TRUCKEE R,FEATHER RIVER,SIERRA,-120.305916,39.492668,"9,999",.None Specified,Sacramento River
755,FW1,FREMONT WEIR FISH PASSAGE UPSTREAM,SACRAMENTO RIVER,YOLO,-121.646914,38.764369,20,CA Dept of Water Resources/Div of Environmental Services,Sacramento River
756,FW2,FREMONT WEIR FISH PASSAGE DOWNSTREAM,SACRAMENTO RIVER,YOLO,-121.646898,38.764142,20,CA Dept of Water Resources/Div of Environmental Services,Sacramento River
757,G01,GREYHORSE 2 NODE 1,AMERICAN RIVER,PLACER,-120.349317,39.128929,"6,200",UC Davis,Sacramento River
758,G02,GREYHORSE 2 NODE 2,AMERICAN RIVER,PLACER,-120.34872,39.1295,"6,200",UC Davis,Sacramento River
759,G03,GREYHORSE 2 NODE 3,AMERICAN RIVER,PLACER,-120.349488,39.130142,"6,200",UC Davis,Sacramento River
760,G04,GREYHORSE 2 NODE 4,AMERICAN RIVER,PLACER,-120.349858,39.13135,"6,200",UC Davis,Sacramento River
761,G05,GREYHORSE 2 NODE 5,AMERICAN RIVER,PLACER,-120.350631,39.13117,"6,200",UC Davis,Sacramento River
762,G06,GREYHORSE 2 NODE 6,AMERICAN RIVER,PLACER,-120.350937,39.130229,"6,200",UC Davis,Sacramento River
763,G07,GREYHORSE 2 NODE 7,AMERICAN RIVER,PLACER,-120.351602,39.130711,"6,200",UC Davis,Sacramento River
764,G08,GREYHORSE 2 NODE 8,AMERICAN RIVER,PLACER,-120.350206,39.129417,"6,200",UC Davis,Sacramento River
765,G09,GREYHORSE 2 NODE 9,AMERICAN RIVER,PLACER,-120.351524,39.129636,"6,200",UC Davis,Sacramento River
766,G10,GREYHORSE 2 NODE 10,AMERICAN RIVER,PLACER,-120.350517,39.128703,"6,200",UC Davis,Sacramento River
767,G11,22N03W24E001M,SACTO VLY WEST,GLENN,-122.155925,39.747338,232,CA Dept of Water Resources/North Region Office,Sacramento River
768,G12,22N03W24E002M,SACTO VLY WEST,GLENN,-122.155925,39.747338,232,CA Dept of Water Resources/North Region Office,Sacramento River
769,G13,22N03W24E003M,SACTO VLY WEST,GLENN,-122.155925,39.747338,232,CA Dept of Water Resources/North Region Office,Sacramento River
770,G14,22N04W01A001M,STONY CREEK,GLENN,-122.252177,39.79749,318,CA Dept of Water Resources/North Region Office,Sacramento River
771,G15,22N04W01A002M,STONY CREEK,GLENN,-122.252177,39.79749,318,CA Dept of Water Resources/North Region Office,Sacramento River
772,G16,22N04W01A003M,STONY CREEK,GLENN,-122.252177,39.79749,318,CA Dept of Water Resources/North Region Office,Sacramento River
773,G17,22N04W01A004M,STONY CREEK,GLENN,-122.252177,39.79749,318,CA Dept of Water Resources/North Region Office,Sacramento River
774,G18,22N01W29N001M,STONY CREEK,GLENN,-122.01052,39.72627,151,CA Dept of Water Resources/North Region Office,Sacramento River
775,G19,22N01W29N002M,STONY CREEK,GLENN,-122.01052,39.72627,151,CA Dept of Water Resources/North Region Office,Sacramento River
776,G20,22N01W29N003M,STONY CREEK,GLENN,-122.01052,39.72627,150,CA Dept of Water Resources/North Region Office,Sacramento River
777,G21,22N01W29N004M,STONY CREEK,GLENN,-122.01052,39.72627,149,CA Dept of Water Resources/North Region Office,Sacramento River
778,GBN,GIBSONVILLE,YUBA RIVER,SIERRA,-120.932,39.725,"5,400",South Feather Water and Power Agency,Sacramento River
779,GES,SACRAMENTO RIVER BELOW GEORGIANA SLOUGH,SACRAMENTO RIVER,SACRAMENTO,-121.5234,38.2389,0,US Geological Survey,Sacramento River
780,GGS,GEORGIANA SLOUGH,DELTA,SACRAMENTO,-121.517,38.238,2,Sacramento County,Sacramento River
781,GH1,GREYHORSE NODE 1,AMERICAN RIVER,PLACER,-120.361372,39.122312,"6,200",UC Davis,Sacramento River
782,GH2,GREYHORSE NODE 2,AMERICAN RIVER,PLACER,-120.361569,39.122312,"6,200",UC Davis,Sacramento River
783,GH3,GREYHORSE NODE 3,AMERICAN RIVER,PLACER,-120.361237,39.122829,"6,200",UC Davis,Sacramento River
784,GH4,GREYHORSE NODE 4,AMERICAN RIVER,PLACER,-120.360833,39.123418,"6,200",UC Davis,Sacramento River
785,GH5,GREYHORSE NODE 5,AMERICAN RIVER,PLACER,-120.36108,39.124216,"6,200",UC Davis,Sacramento River
786,GH6,GREYHORSE NODE 6,AMERICAN RIVER,PLACER,-120.362456,39.124087,"6,200",UC Davis,Sacramento River
787,GH7,GREYHORSE NODE 7,AMERICAN RIVER,PLACER,-120.362765,39.123559,"6,200",UC Davis,Sacramento River
788,GH8,GREYHORSE NODE 8,AMERICAN RIVER,PLACER,-120.362462,39.123003,"6,200",UC Davis,Sacramento River
789,GH9,GREYHORSE NODE 9,AMERICAN RIVER,PLACER,-120.362001,39.123503,"6,200",UC Davis,Sacramento River
790,GIB,GIBSON,SACRAMENTO RIVER,SHASTA,-122.39917,41.022221,"1,633",CA Dept of Water Resources/DFM-Hydro-SMN,Sacramento River
791,GKS,GREEK STORE,AMERICAN RIVER,PLACER,-120.5616,39.07468,"5,600",US Bureau of Reclamation,Sacramento River
792,GLL,GERLE LAKE,AMERICAN RIVER,EL DORADO,-120.393056,38.969167,"5,860",Sacramento Municipal Utility District,Sacramento River
793,GOD,GODFATHER II ON SUISUN SLOUGH,DELTA,SOLANO,-122.0812,38.1238,0,CA Dept of Water Resources/Div of Environmental Services,Sacramento River
794,GOL,GOLD LAKE,FEATHER RIVER,SIERRA,-120.617167,39.674767,"6,750",CA Dept of Water Resources/Operations and Maintenance,Sacramento River
795,GPH,GRIZZLY POWERHOUSE,FEATHER RIVER,PLUMAS,-121.279265,39.889279,"4,370",Pacific Gas & Electric,Sacramento River
796,GRD,GIRARD,SACRAMENTO RIVER,SHASTA,-122.283,41.133,"4,800",US Bureau of Reclamation,Sacramento River
797,GRE,GREENVILLE,FEATHER RIVER,PLUMAS,-120.9412,40.1394,"3,560",CA Dept of Water Resources/O&M Oroville Field Division,Sacramento River
798,GRG,GEORGETOWN RS (USFS),AMERICAN RIVER,EL DORADO,-120.8,38.933,"3,001",US Forest Service,Sacramento River
799,GRI,GRINDSTONE CK NR GRINDSTONE RANCHERIA,STONY CREEK,GLENN,-122.53054,39.67911,630,US Bureau of Reclamation,Sacramento River
800,GRL,FEATHER RIVER NEAR GRIDLEY,FEATHER RIVER,BUTTE,-121.647369,39.366577,92,CA Dept of Water Resources/Operations and Maintenance,Sacramento River
801,GRZ,GRIZZLY RIDGE,FEATHER RIVER,PLUMAS,-120.645,39.917,"6,900",CA Dept of Water Resources/Operations and Maintenance,Sacramento River
802,GSM,GEORGIANA SLOUGH AT MOKELUMNE R,MOKELUMNE RIVER,SACRAMENTO,-121.582974,38.129533,18,CA Dept of Water Resources/North Central Region Office,Sacramento River
803,GSS,GEORGIANA SLOUGH AT SACRAMENTO RIVER,SACRAMENTO RIVER,SACRAMENTO,-121.518,38.237,10,US Geological Survey,Sacramento River
804,GSV,GRASS VALLEY,YUBA RIVER,NEVADA,-121.067,39.217,"2,400",National Weather Service,Sacramento River
805,GTW,GEORGETOWN (USBR),AMERICAN RIVER,EL DORADO,-120.789703,38.924572,"3,250",US Bureau of Reclamation,Sacramento River
806,GVY,GRASS VALLEY,YUBA RIVER,NEVADA,-121.068336,39.205276,"2,400",CA Dept of Water Resources/DFM-Hydro-SMN,Sacramento River
807,GYB,N YUBA R BLW GOODYEARS BAR,YUBA RIVER,SIERRA,-120.938004,39.524895,"2,453",US Geological Survey,Sacramento River
808,GYR,GRAY ROCK LAKES,SACRAMENTO RIVER,SISKIYOU,-122.417,41.217,"6,200",Mount Shasta Ranger District,Sacramento River
809,GYS,GOODYEAR SLOUGH,DELTA,SOLANO,-122.095,38.118,0,CA Dept of Water Resources/Div of Environmental Services,Sacramento River
810,GZM,GRIZZLY BAY AT HEAD OF MONTEZUMA SL BUOY,DELTA,SOLANO,-122.060196,38.141304,0,CA Dept of Water Resources/Div of Environmental Services,Sacramento River
811,H41,SAN JOAQUIN R AT HWY 41,SAN JOAQUIN RIVER,MADERA,-119.7932,36.8762,260,US Bureau of Reclamation,Sacramento River
812,HAM,HAMILTON BRANCH,FEATHER RIVER,PLUMAS,-121.0914,40.2725,"4,560",CA Dept of Water Resources/Flood Management,Sacramento River
813,HBP,HARVEY O BANKS PUMPING P (KA000331),DELTA,CONTRA COSTA,-121.620278,37.801944,4,CA Dept of Water Resources/Operations and Maintenance,Sacramento River
814,HCB,HAT CK BLW HAT CK,HAT CREEK,SHASTA,-121.552307,40.862522,"3,284",CA Dept of Water Resources/North Region Office,Sacramento River
815,HCN,HAT CK NR HAT CK,HAT CREEK,SHASTA,-121.422783,40.68911,"4,274",CA Dept of Water Resources/North Region Office,Sacramento River
816,HDC,HENDRICKS CANAL,FEATHER RIVER,BUTTE,-121.529,39.934,"9,999",Pacific Gas & Electric,Sacramento River
817,HHL,HELL HOLE (PCWA),AMERICAN RIVER,PLACER,-120.407,39.058,"4,630",Placer County Water Agency,Sacramento River
818,HKR,HEART K RANCH,FEATHER RIVER,PLUMAS,-120.693752,40.067822,"3,773",Center for Western Weather and Water Extremes,Sacramento River
819,HLC,HILLCREST,PIT RIVER,SHASTA,-121.883,40.867,"3,440",US Bureau of Reclamation,Sacramento River
820,HLH,HELL HOLE (USFS),AMERICAN RIVER,PLACER,-120.4217,39.0717,"4,580",US Forest Service,Sacramento River
821,HLL,HOLLAND TRACT,DELTA,CONTRA COSTA,-121.580617,38.006986,0,US Bureau of Reclamation,Sacramento River
822,HMB,HUMBUG,FEATHER RIVER,PLUMAS,-121.368,40.115,"6,500",CA Dept of Water Resources/O&M Oroville Field Division,Sacramento River
823,HMC,SACRAMENTO R AT HAMILTON CITY-MAIN CH,SACRAMENTO RIVER,GLENN,-121.997879,39.750923,145,CA Dept of Water Resources/North Region Office,Sacramento River
824,HPP,HYATT POWER PLANT,FEATHER RIVER,BUTTE,-121.485173,39.53322,400,CA Dept of Water Resources/Operations and Maintenance,Sacramento River
825,HRF,HARKNESS FLAT,FEATHER RIVER,LASSEN,-121.27295,40.40666,"5,946","Pacific Gas and Electric Company, Rogers Flat",Sacramento River
826,HRK,HARKNESS FLAT,FEATHER RIVER,LASSEN,-121.275,40.418,"6,200",CA Dept of Water Resources/Operations and Maintenance,Sacramento River
827,HRO,HARVEY O BANKS PUMPING PLANT,DELTA,CONTRA COSTA,-121.623,37.798,4,CA Dept of Water Resources/O&M San Joaquin Field Division,Sacramento River
828,HRY,STRONG RANCH - HURLEY WAY,AMERICAN RIVER,SACRAMENTO,-121.405281,38.586945,35,Sacramento County,Sacramento River
829,HRZ,HIRZ,SACRAMENTO RIVER,SHASTA,-122.25,40.9,"3,200",US Bureau of Reclamation,Sacramento River
830,HS2,HUMBUG SUMMIT 2,FEATHER RIVER,PLUMAS,-121.30726,40.18496,"4,956","Pacific Gas and Electric Company, Rogers Flat",Sacramento River
831,HSL,HILL SLOUGH,DELTA,SOLANO,-122.024,38.2222,0,CA Dept of Water Resources/Div of Environmental Services,Sacramento River
832,HST,AMERICAN RIVER AT H STREET BRIDGE,AMERICAN RIVER,SACRAMENTO,-121.423691,38.56871,45,CA Dept of Water Resources/North Central Region Office,Sacramento River
